city,code,People,lon,Median age,Female,lat,Male
Pemulwuy,13181,5009,150.923752,33,0.516,-33.821944,0.484
Verges Creek,14072,233,152.89971,48,0.476,-31.087755,0.524
Rous,13427,227,153.389634,46,0.482,-28.876258,0.518
Glebe (NSW),11641,11532,151.187791,36,0.533,-33.880815,0.467
West Coraki,14243,122,153.2153,47,0.405,-29.0015,0.595
South Albury,13573,1379,146.915213,37,0.468,-36.097002,0.532
Wentworth (NSW),14225,1437,141.919215,56,0.497,-34.106868,0.503
Markwell,12493,116,152.181811,53,0.5,-32.320298,0.5
Breakfast Point,10557,4188,151.107502,41,0.535,-33.841583,0.465
Liverpool,12361,27084,150.923868,34,0.503,-33.918951,0.497
Moonbi,12699,1126,151.045963,52,0.53,-30.951431,0.47
Sutherland (NSW),13701,10816,151.057965,36,0.52,-34.031432,0.48
Bungonia,10685,367,149.869192,49,0.512,-34.829239,0.488
Jennings,12008,160,151.927109,56,0.488,-28.927903,0.512
Eastern Creek,11366,827,150.852192,34,0.495,-33.803114,0.505
Camden Park (NSW),10772,2238,150.721836,34,0.525,-34.088673,0.475
South Bowenfels,13578,1162,150.120913,43,0.524,-33.60463,0.476
Point Frederick,13232,1927,151.341896,46,0.531,-33.449407,0.469
Fairlight,11482,5840,151.273978,38,0.523,-33.794163,0.477
Gravesend,11742,321,150.337609,43,0.486,-29.582339,0.514
Wanaaring,14126,140,144.147343,39,0.522,-29.706274,0.478
Cathcart (NSW),10855,108,149.388335,51,0.531,-36.843699,0.469
East Coraki,11347,205,153.310661,45,0.527,-28.998703,0.473
Neurea,12933,130,148.947815,46,0.481,-32.708193,0.519
Bankstown,10180,32113,150.971005,32,0.507,-33.893687,0.493
Kentlyn,12101,740,150.85743,40,0.495,-34.073171,0.505
Alstonvale,10045,442,153.445477,47,0.518,-28.805607,0.482
Bella Vista,10263,7837,150.95501,38,0.506,-33.737345,0.494
Wollombi,14355,188,151.142665,59,0.537,-32.9376,0.463
Hyams Beach,11967,112,150.681004,66,0.509,-35.101726,0.491
Telegraph Point,13781,609,152.79968,46,0.476,-31.321632,0.524
Mystery Bay,12883,191,150.128542,59,0.476,-36.299297,0.524
Yowrie,14520,117,149.717828,54,0.449,-36.297586,0.551
Bentley (NSW),10298,197,153.090423,51,0.5,-28.756611,0.5
Chippendale,10907,8617,151.201715,26,0.519,-33.886844,0.481
Garah,11586,306,150.626431,41,0.454,-34.763894,0.546
Dalgety,11190,205,148.834562,52,0.433,-36.502267,0.567
Rathmines,13319,1905,151.59415,46,0.506,-33.045785,0.494
Eastgardens,11367,860,151.223301,42,0.506,-33.946043,0.494
Tomakin,13890,1001,150.193026,56,0.481,-35.821767,0.519
Forest Lodge,11546,4583,151.181127,30,0.516,-33.881215,0.484
Scone,13503,5624,150.867527,39,0.512,-32.050707,0.488
Ballina,10162,8655,153.456889,55,0.543,-28.983995,0.457
Tarcutta,13763,446,147.738748,46,0.47,-35.27561,0.53
Carnes Hill,10820,2043,150.8488,31,0.507,-33.9376,0.493
Jiggi,12026,394,153.182012,44,0.448,-28.680571,0.552
Adaminaby,10015,301,148.701954,55,0.472,-36.029411,0.528
Mungay Creek,12841,141,152.656779,52,0.448,-30.925992,0.552
Hassall Grove,11866,4505,150.834277,30,0.51,-33.733813,0.49
North Bondi,12984,9165,151.279788,34,0.51,-33.8857,0.49
Townsend,13928,890,153.220203,43,0.51,-29.465648,0.49
Granville (NSW),11738,15332,151.006224,31,0.474,-33.863022,0.526
Numulgi,13041,209,153.324937,49,0.483,-28.744012,0.517
Hilldale,11906,195,151.65007,42,0.456,-32.503221,0.544
Marrar,12503,368,147.350199,39,0.477,-34.823698,0.523
Hobartville (NSW),11917,2744,150.735673,35,0.515,-33.601557,0.485
Hillsborough (Lake Macquarie - NSW),11909,652,151.6742,40,0.508,-32.962,0.492
Warrell Creek,14170,255,152.892327,52,0.482,-30.770271,0.518
Hallidays Point,11832,518,152.488055,49,0.494,-32.069775,0.506
Cessnock,10878,15177,151.191636,38,0.501,-32.865953,0.499
Mogendoura,12657,183,150.058818,55,0.516,-35.872225,0.484
Nerong,12929,105,152.198243,62,0.459,-32.523533,0.541
Bourke,10522,1909,145.937742,34,0.517,-30.088847,0.483
Williamtown,14299,885,151.844224,48,0.443,-32.806831,0.557
Joadja,12035,118,150.220396,50,0.517,-34.421009,0.483
Fairy Hill,11483,385,152.986613,48,0.5,-28.762953,0.5
Geurie,11608,755,148.828532,42,0.497,-32.399032,0.503
Queens Park (NSW),13294,3066,151.247205,39,0.521,-33.903188,0.479
Kotara,12200,3929,151.707216,39,0.509,-32.934986,0.491
Lansvale,12275,2570,150.952786,39,0.475,-33.89733,0.525
South Littleton,13590,301,150.13517,39,0.488,-33.498267,0.512
Exeter (NSW),11475,949,150.317392,54,0.519,-34.613161,0.481
Coolongolook,11032,392,152.321932,51,0.512,-32.21868,0.488
Tweed Heads South,13985,7615,153.543747,52,0.537,-28.198486,0.463
Oallen,13062,141,149.959164,50,0.445,-35.140146,0.555
Glenorie,11673,3497,151.023035,41,0.505,-33.620011,0.495
Glendon,11660,115,151.279715,44,0.556,-32.586672,0.444
Liston,12346,133,152.086292,57,0.474,-28.647747,0.526
Sadleir,13461,3135,150.890212,33,0.502,-33.920629,0.498
Talbingo,13730,239,148.303311,59,0.479,-35.581624,0.521
Stockinbingal,13660,374,147.879961,50,0.503,-34.506023,0.497
Colo Heights,10984,334,150.72214,41,0.478,-33.368491,0.522
Tuckombil,13947,259,153.463089,46,0.463,-28.820674,0.537
Monteagle,12683,208,148.342278,43,0.486,-34.193245,0.514
Forresters Beach,11549,2900,151.463884,43,0.511,-33.407108,0.489
Wiangaree,14283,131,152.967547,40,0.529,-28.505758,0.471
Mangrove Mountain,12472,715,151.191661,41,0.494,-33.300847,0.506
Clovelly,10938,4736,151.254892,37,0.519,-33.911604,0.481
Doyalson North,11287,384,151.546219,72,0.538,-33.185292,0.462
Stony Chute,13667,169,153.155256,51,0.479,-28.576926,0.521
Karabar,12071,8247,149.216388,37,0.506,-35.362899,0.494
Tamworth,13746,180,151.144183,38,0.401,-32.560224,0.599
Lovett Bay,12397,153,151.278429,55,0.448,-33.637405,0.552
Rouse Hill,13429,7965,150.915397,34,0.497,-33.682068,0.503
Broughton Vale,10606,165,150.708686,59,0.503,-34.757278,0.497
Tharbogang,13811,511,145.988692,40,0.454,-34.255222,0.546
Splitters Creek,13610,267,146.844998,49,0.518,-36.063828,0.482
Taralga,13759,467,149.818683,46,0.476,-34.405567,0.524
Allworth,10041,166,151.960927,47,0.43,-32.541688,0.57
Lake Cargelligo,12242,1479,146.370322,38,0.507,-33.298908,0.493
Rosemeadow,13410,7862,150.800106,33,0.52,-34.101795,0.48
Raglan (NSW),13304,1199,149.649389,36,0.487,-33.422275,0.513
O'Connell (NSW),13052,569,149.723143,44,0.495,-33.536286,0.505
Gundagai,11803,1676,148.100558,46,0.509,-35.077496,0.491
Bungawalbin,10683,120,153.1231,50,0.429,-29.129,0.571
Girards Hill,11631,1318,153.275124,44,0.527,-28.813942,0.473
Dharruk,11248,2774,150.816642,34,0.51,-33.743232,0.49
Nericon,12927,293,146.036209,41,0.505,-34.168334,0.495
Murray Downs,12852,265,143.617961,51,0.509,-35.311557,0.491
Crookwell,11123,2641,149.470291,50,0.507,-34.458076,0.493
Central Mangrove,10876,264,151.234661,45,0.498,-33.292384,0.502
Lugarno,12421,5606,151.046942,44,0.509,-33.982956,0.491
Bendick Murrell,10290,155,148.449846,50,0.468,-34.16282,0.532
Kiama Downs,12117,5004,150.851208,42,0.503,-34.645131,0.497
Bonnet Bay,10469,2262,151.054252,43,0.496,-34.009518,0.504
Summer Hill Creek,13688,216,149.132468,42,0.46,-33.217273,0.54
Horsfield Bay,11941,544,151.299908,45,0.499,-33.49347,0.501
Woodford Island,14384,245,153.1349,47,0.517,-29.5094,0.483
Islington,11990,1883,151.745721,34,0.501,-32.911915,0.499
Coffee Camp,10958,218,153.22894,49,0.479,-28.659389,0.521
Upper Corindi,14020,156,153.158509,51,0.484,-30.035889,0.516
Warnervale,14154,641,151.459786,37,0.494,-33.242434,0.506
Lorn,12389,1337,152.591668,43,0.523,-31.657555,0.477
Warri,14172,109,146.858999,41,0.49,-29.961519,0.51
Oberon,13068,3256,149.7741,45,0.501,-33.6677,0.499
McMahons Point,12547,2278,151.20425,42,0.523,-33.84464,0.477
Branxton,10549,1991,151.363965,39,0.504,-32.655999,0.496
East Wardell,11365,305,153.466641,45,0.518,-28.956977,0.482
Lakewood,12259,1191,152.756608,56,0.509,-31.635267,0.491
South Nowra,13594,1928,150.60221,32,0.52,-34.898363,0.48
Blue Bay,10414,1027,151.500048,50,0.527,-33.357184,0.473
Carey Bay,10812,896,151.605836,56,0.573,-33.027126,0.427
Wardell,14144,832,153.464326,45,0.465,-28.952703,0.535
Mumbil,12832,291,149.049691,51,0.5,-32.725539,0.5
Bungendore,10684,4178,149.440417,38,0.498,-35.256083,0.502
Hamilton Valley,11842,566,146.919729,31,0.499,-36.037497,0.501
Greenwell Point,11769,1209,150.729736,58,0.472,-34.907929,0.528
Mandalong,12465,426,151.414627,40,0.508,-33.145241,0.492
Toukley,13925,4550,151.540695,49,0.508,-33.265459,0.492
Valla,14067,936,153.008479,45,0.51,-30.591805,0.49
Narrabeen,12902,8207,151.293622,45,0.525,-33.702661,0.475
Moorbel,12709,238,148.69457,44,0.436,-33.566841,0.564
Mullengandra,12823,124,147.180565,45,0.554,-35.87712,0.446
Duri,11332,532,153.258782,44,0.49,-28.887662,0.51
Keinbah,12084,116,151.399632,39,0.525,-32.760031,0.475
Cameron Park,10775,7995,151.655731,32,0.513,-32.933952,0.487
Swan Creek (NSW),13706,111,152.981609,41,0.425,-29.668607,0.575
Sussex Inlet,13700,3575,150.596247,60,0.496,-35.157009,0.504
Bootawa,10504,169,152.373581,52,0.512,-31.914391,0.488
Lloyd,12365,838,147.335216,32,0.518,-35.14755,0.482
North Manly,12997,3090,151.269339,38,0.501,-33.775702,0.499
Warners Bay,14153,7614,151.644682,43,0.529,-32.975418,0.471
Cumborah,11158,249,147.767956,55,0.42,-29.742525,0.58
Belimbla Park,10261,581,150.543085,41,0.507,-34.075888,0.493
Fishermans Reach,11524,157,152.996244,54,0.435,-30.851981,0.565
Gwabegar,11823,162,148.96949,46,0.513,-30.619798,0.487
Fairfield (NSW),11477,18081,150.955512,36,0.504,-33.868529,0.496
Lake Innes,12251,426,152.823635,44,0.506,-31.481465,0.494
Spring Ridge,13619,240,150.683758,43,0.443,-31.498483,0.557
Mount Fairy,12758,205,149.59895,47,0.464,-35.166753,0.536
Royalla,13434,984,149.16269,41,0.487,-35.512227,0.513
Pretty Beach (Central Coast - NSW),13261,352,151.3479,51,0.49,-33.5268,0.51
Dapto,11202,10730,150.793006,40,0.51,-34.494001,0.49
Bringelly,10575,2507,150.725207,39,0.485,-33.945707,0.515
The Entrance North,13819,1474,151.511249,43,0.509,-33.326254,0.491
Heckenberg,11887,3094,150.889921,32,0.529,-33.911083,0.471
Kearsley,12080,861,151.395667,35,0.467,-32.858649,0.533
South Arm (Nambucca - NSW),13575,313,152.7482,47,0.484,-30.6965,0.516
South Arm (Clarence Valley - NSW),13574,237,152.2872,49,0.494,-25.047,0.506
Nundle,13043,496,151.127044,52,0.477,-31.462548,0.523
North Wahroonga,13015,1998,151.123179,44,0.515,-33.702704,0.485
Murringo,12858,365,148.509953,45,0.478,-34.272867,0.522
Ewingsdale,11474,825,153.557753,44,0.503,-28.637032,0.497
Martinsville,12512,361,151.406243,53,0.492,-33.055785,0.508
Beechwood,10248,615,152.678408,46,0.521,-31.436805,0.479
Darlington (Sydney - NSW),11214,3097,151.1933,25,0.522,-33.8909,0.478
Glendenning,11659,5131,150.855174,31,0.504,-33.739075,0.496
Candelo,10788,686,149.695188,47,0.51,-36.767311,0.49
Cardiff Heights,10810,1443,151.672253,46,0.525,-32.936219,0.475
Kyeemagh,12226,919,151.159943,43,0.513,-33.951452,0.487
Glenridding,11676,255,151.157167,46,0.471,-32.581778,0.529
Sydney Olympic Park,13716,1736,151.0665,31,0.481,-33.8394,0.519
Cudal,11140,553,148.738898,44,0.469,-33.286704,0.531
Gerroa,11607,673,150.815611,51,0.502,-34.770171,0.498
Millfield,12620,1006,151.264273,39,0.512,-32.888506,0.488
Larnook,12279,376,153.11767,42,0.485,-28.645794,0.515
Pallamallawa,13131,448,150.136975,44,0.481,-29.475108,0.519
Wildes Meadow,14292,259,150.530044,55,0.494,-34.618189,0.506
Toothdale,13914,172,149.764434,44,0.475,-36.7906,0.525
Binjura,10370,321,149.10666,44,0.522,-36.180676,0.478
Ramornie,13308,206,152.782792,51,0.471,-29.640683,0.529
Murrays Run,12855,150,151.1751,55,0.474,-33.0742,0.526
Pampoolah,13142,393,152.512723,51,0.477,-31.931374,0.523
Campsie,10782,24541,151.103465,34,0.498,-33.914373,0.502
Crackenback,11103,197,148.511421,41,0.444,-36.441153,0.556
Ingleburn,11978,15039,150.866344,35,0.502,-33.998718,0.498
Castlecrag,10849,2939,151.212643,43,0.504,-33.802403,0.496
Blaxlands Ridge,10409,501,150.712367,38,0.485,-33.502253,0.515
Mount Victoria,12797,1016,150.251161,45,0.5,-33.588561,0.5
Howlong,11950,2777,146.60586,47,0.501,-35.958568,0.499
Stuart Town,13680,235,149.077263,50,0.481,-32.805688,0.519
Oatley,13064,10486,151.082765,42,0.515,-33.981428,0.485
Goolgowi,11705,402,145.708082,39,0.454,-33.983547,0.546
Yarrawonga (NSW),14486,421,149.65883,43,0.447,-32.356621,0.553
Double Bay,11281,4642,151.243095,39,0.562,-33.87906,0.438
Batehaven,10228,1776,150.199539,54,0.537,-35.73211,0.463
Upper Crystal Creek,14021,189,153.303819,51,0.451,-28.282291,0.549
Empire Bay,11415,2400,151.362188,41,0.505,-33.494186,0.495
Gregory Hills,11774,4985,150.7761,29,0.495,-34.0272,0.505
Aberdare,10006,2473,151.376514,35,0.512,-32.8442,0.488
Safety Beach (NSW),13462,930,153.192452,48,0.5,-30.096684,0.5
White Cliffs,14274,148,143.083844,45,0.439,-30.850444,0.561
Rollands Plains,13392,155,152.624248,49,0.497,-31.23771,0.503
Tomingley,13896,306,148.217991,45,0.439,-32.556854,0.561
Middle Pocket,12606,138,153.48262,44,0.552,-28.493352,0.448
Pitt Town Bottoms,13227,102,150.841424,36,0.356,-33.596291,0.644
Pagewood,13125,3805,151.228411,42,0.506,-33.940108,0.494
Blayney,10410,3378,143.8209,39,0.503,-38.6849,0.497
Bligh Park,10411,6366,150.79458,31,0.517,-33.63765,0.483
South West Rocks,13600,4603,153.040452,56,0.512,-30.884423,0.488
Tumbi Umbi,13962,5108,151.447302,44,0.51,-33.362679,0.49
Tamarama,13741,1622,151.271839,36,0.514,-33.897439,0.486
Gymea Bay,11827,6892,151.086087,41,0.512,-34.048156,0.488
Kanwal,12067,4099,151.479653,44,0.529,-33.263412,0.471
Orangeville,13094,1250,150.573125,39,0.485,-34.04279,0.515
Baradine,10190,760,149.065815,49,0.493,-30.943207,0.507
Woodberry,14377,2993,151.665395,38,0.52,-32.793692,0.48
Bar Beach,10187,1256,151.768383,39,0.46,-32.939962,0.54
Tomago,13889,277,151.757485,55,0.351,-32.818383,0.649
Eurunderee,11467,164,149.608821,49,0.497,-32.52605,0.503
Darlington (Singleton - NSW),11213,373,151.1601,33,0.508,-32.5594,0.492
Minnamurra,12639,760,150.855113,48,0.501,-34.627871,0.499
Raleigh,13307,645,152.994874,50,0.474,-30.480738,0.526
Tacoma South,13725,248,151.457044,42,0.455,-33.289592,0.545
Falls Creek (NSW),11487,935,150.596929,47,0.467,-34.968232,0.533
Mount Druitt,12756,16726,150.811583,31,0.501,-33.772053,0.499
Menangle Park,12569,257,150.757016,38,0.466,-34.100121,0.534
Georges Plains,11602,248,149.523182,45,0.48,-33.515629,0.52
Rose Bay (NSW),13398,10053,151.280456,38,0.535,-33.866555,0.465
Agnes Banks,10021,911,150.707372,36,0.482,-33.618877,0.518
Lismore (NSW),12344,3579,153.269477,40,0.512,-28.809302,0.488
Kiama Heights,12118,814,150.843492,49,0.491,-34.697929,0.509
Cumbalum,11154,1522,153.525966,37,0.507,-28.825835,0.493
Wyndham (NSW),14443,386,149.6338,51,0.49,-36.9222,0.51
Huntleys Point,11961,144,151.145968,52,0.5,-33.840088,0.5
Willmot,14302,2430,150.791569,30,0.521,-33.727621,0.479
Little Hartley,12352,506,150.208607,50,0.504,-33.571701,0.496
Grong Grong,11784,250,146.781265,46,0.504,-34.73818,0.496
Broke (NSW),10590,579,151.103474,40,0.485,-32.751222,0.515
Albury,10027,4804,146.890443,43,0.514,-36.073344,0.486
Butterwick,10725,144,151.639005,46,0.486,-32.658257,0.514
Tyalgum,13994,545,153.160681,43,0.542,-28.346657,0.458
Grasmere,11739,1963,150.67317,56,0.551,-34.056293,0.449
Bribbaree,10566,141,147.873721,47,0.46,-34.121252,0.54
North Curl Curl,12988,4117,151.295691,38,0.498,-33.761652,0.502
Kootingal,12194,2126,151.054338,39,0.52,-31.057413,0.48
Thornleigh,13850,8464,151.081226,39,0.508,-33.730816,0.492
Glen Alpine,11645,4559,150.775275,40,0.5,-34.084184,0.5
Artarmon,10090,9523,151.189662,35,0.512,-33.807664,0.488
Stokers Siding,13664,663,153.403631,46,0.478,-28.393503,0.522
Borenore,10513,462,148.974505,44,0.464,-33.247292,0.536
Boggabilla,10441,990,150.415347,31,0.507,-28.744821,0.493
Warriewood,14173,7501,151.29908,39,0.52,-33.686265,0.48
Inverell,11981,11660,151.229884,41,0.521,-29.748424,0.479
Kalaru,12051,708,149.939572,42,0.49,-36.736047,0.51
Kingfisher Shores,12146,163,151.5572,44,0.5,-33.1714,0.5
Invergowrie,11983,775,151.498196,45,0.496,-30.497561,0.504
North Strathfield,13009,4767,151.091954,32,0.502,-33.85746,0.498
Wagga Wagga,14083,7104,151.904484,38,0.52,-30.569822,0.48
Whale Beach,14267,253,151.330438,57,0.531,-33.614274,0.469
South Gundurimba,13585,322,153.258782,45,0.472,-28.887662,0.528
Carroll,10832,337,149.438586,38,0.472,-30.087425,0.528
The Slopes,13842,326,150.708405,44,0.51,-33.532102,0.49
Boambee,10421,1668,153.084224,46,0.487,-30.34062,0.513
Werris Creek,14238,1572,150.619915,49,0.485,-31.345921,0.515
North Sydney,13010,7705,151.208276,35,0.512,-33.837788,0.488
Farrants Hill,11493,124,153.485658,57,0.496,-28.316723,0.504
Kurraba Point,12217,1521,149.4235,40,0.528,-36.3901,0.472
North Gosford,12991,3700,151.348821,38,0.512,-33.41684,0.488
Wee Waa,14211,2080,149.444421,38,0.498,-30.224868,0.502
Lake Illawarra,12250,3163,150.85695,43,0.517,-34.546473,0.483
San Remo (NSW),13470,4351,151.51616,35,0.512,-33.209738,0.488
Berrima,10320,666,150.332394,52,0.515,-34.504395,0.485
Mandurama,12467,355,149.075273,50,0.482,-33.648855,0.518
Elermore Vale,11394,5526,151.675532,40,0.527,-32.916279,0.473
Illawong,11974,7271,151.042591,43,0.499,-33.998018,0.501
Maryvale (NSW),12517,191,148.899155,45,0.497,-32.464179,0.503
Parklea,13153,3465,150.923807,34,0.355,-33.728123,0.645
Swansea Heads,13712,614,151.657053,44,0.483,-33.09521,0.517
Arrawarra Headland,10089,557,153.202738,47,0.497,-30.059771,0.503
Tintenbar,13878,822,153.513163,45,0.488,-28.79659,0.512
Tucabia,13945,367,153.107275,54,0.493,-29.669036,0.507
Cartwrights Hill,10839,189,147.389575,42,0.439,-35.069754,0.561
Gleniffer,11668,369,152.901504,53,0.526,-30.386799,0.474
Glenwood (NSW),11682,16130,150.922732,34,0.505,-33.737863,0.495
Mylestom,12875,344,153.042817,51,0.519,-30.464762,0.481
Canobolas,10793,476,149.047339,46,0.5,-33.298346,0.5
Johns River,12037,322,152.695147,48,0.494,-31.733492,0.506
Wallarobba,14111,172,151.697483,47,0.526,-32.497237,0.474
The Entrance,13818,4006,151.511249,47,0.524,-33.326254,0.476
Woodpark,14390,1523,150.961859,32,0.506,-33.84063,0.494
Whittingham,14279,364,151.201067,45,0.517,-32.604494,0.483
Rushcutters Bay,13444,2547,151.228614,37,0.495,-33.87624,0.505
Stonehenge (NSW),13665,130,151.7249,53,0.485,-29.8299,0.515
Bohena Creek,10444,167,149.66193,47,0.494,-30.439473,0.506
Roselands,13409,11579,151.073197,36,0.506,-33.933167,0.494
Myocum,12877,985,153.503992,48,0.532,-28.576877,0.468
Girraween (NSW),11636,5590,150.947276,35,0.49,-33.799843,0.51
Lightning Ridge,12320,2284,147.979236,51,0.458,-29.425724,0.542
Pheasants Nest,13191,688,150.635599,41,0.478,-34.255973,0.522
Bowna,10534,110,147.130856,48,0.495,-35.964984,0.505
Upsalls Creek,14049,118,152.659543,45,0.444,-31.633347,0.556
Yamba (NSW),14458,6076,153.361445,56,0.515,-29.437064,0.485
Pitt Town,13226,3033,150.841424,34,0.499,-33.596291,0.501
Constitution Hill,11014,3966,150.975,36,0.522,-33.793,0.478
Cobargo,10951,776,149.887772,53,0.525,-36.38761,0.475
Lakesland,12258,432,150.526834,41,0.503,-34.18087,0.497
Bellingen,10273,3779,152.897966,43,0.537,-30.446069,0.463
Wilcannia,14290,745,143.377976,33,0.507,-31.558559,0.493
Martins Creek,12511,388,151.612337,39,0.525,-32.555529,0.475
Repton,13352,646,153.022416,46,0.523,-30.438888,0.477
Nambucca Heads,12887,6327,153.002886,56,0.526,-30.642442,0.474
Bawley Point,10235,698,150.393202,55,0.509,-35.522387,0.491
Gulargambone,11792,591,148.471189,45,0.5,-31.329692,0.5
Darlinghurst,11212,11320,151.21956,35,0.422,-33.879825,0.578
Marulan,12513,1178,150.03039,41,0.485,-34.76026,0.515
Kulnura,12206,607,151.222101,45,0.484,-33.225924,0.516
Mullaway,12822,567,153.200245,37,0.506,-30.077053,0.494
Caddens,10743,1475,150.7327,30,0.509,-33.771,0.491
New Lambton,12942,10048,151.690553,40,0.519,-32.932574,0.481
Fernmount,11509,369,152.959265,45,0.49,-30.468067,0.51
Maroota,12500,617,150.948575,39,0.497,-33.52308,0.503
Waterfall,14182,494,150.994957,39,0.502,-34.1352,0.498
Lilyfield,12325,7616,151.165788,39,0.525,-33.872991,0.475
Maimuru,12444,137,148.235113,39,0.519,-34.252818,0.481
Glenfield Park,11665,5232,147.334699,33,0.522,-35.13891,0.478
Kilaben Bay,12125,1431,151.587294,45,0.517,-33.024534,0.483
Winton (NSW),14336,222,150.763349,46,0.538,-31.079338,0.462
Windsor Downs,14326,1179,150.803079,45,0.471,-33.667695,0.529
Yellow Rock (Shellharbour - NSW),14503,206,150.7374,43,0.478,-34.6017,0.522
Ashford (NSW),10099,652,151.096081,53,0.507,-29.321245,0.493
Jeremadra,12012,168,150.136599,47,0.503,-35.809125,0.497
Wakefield,14088,144,151.560504,41,0.493,-32.956584,0.507
Narwee,12912,5618,151.069628,38,0.515,-33.948609,0.485
Wakeley,14089,4746,150.90888,38,0.511,-33.873966,0.489
Warrimoo,14174,2450,150.604162,38,0.49,-33.722958,0.51
Bateau Bay,10227,12146,151.479104,44,0.531,-33.381213,0.469
Terara,13795,234,150.627436,55,0.491,-34.865447,0.509
Bexley,10334,19733,151.117388,39,0.512,-33.959548,0.488
Birrong,10379,3103,151.022398,35,0.509,-33.89022,0.491
Robertson (NSW),13374,1865,150.596418,45,0.505,-34.589237,0.495
Garden Suburb,11587,1910,151.683365,44,0.508,-32.948355,0.492
Gowrie (Singleton - NSW),11729,323,153.2775,39,0.503,-28.1853,0.497
Gloucester,11685,2975,151.625369,50,0.53,-32.049433,0.47
Caragabal,10806,185,147.739256,41,0.511,-33.843829,0.489
Connells Point,11013,2829,151.089495,42,0.514,-33.991871,0.486
Lane Cove North,12267,11436,151.170912,34,0.517,-33.807556,0.483
Bundabah,10668,109,152.074063,54,0.518,-32.662213,0.482
Denman,11241,1789,150.686422,41,0.498,-32.389403,0.502
Berkeley Vale,10304,8355,151.43163,38,0.52,-33.341788,0.48
Sun Valley (NSW),13691,227,150.592445,47,0.519,-33.712081,0.481
Fullerton Cove,11575,566,151.837968,63,0.491,-32.841049,0.509
Lower Southgate,12413,113,153.076817,48,0.483,-29.556531,0.517
Long Point (Campbelltown - NSW),12381,212,150.8964,42,0.451,-34.0115,0.549
Hanwood,11850,1256,146.041304,39,0.479,-34.329292,0.521
Bilgola Plateau,10351,3518,151.3159,44,0.502,-33.6451,0.498
Warialda,14149,1590,150.536881,48,0.503,-29.583725,0.497
Greenridge,11768,157,153.120103,28,0.484,-28.896232,0.516
Sydney,13715,17252,151.191884,30,0.489,-33.871209,0.511
Mallabula,12455,931,152.011748,44,0.479,-32.72898,0.521
Burrundulla,10717,149,149.639181,41,0.517,-32.623433,0.483
Bellawongarah,10267,127,150.626431,60,0.473,-34.763894,0.527
Pimlico (NSW),13207,297,153.494219,45,0.483,-28.889412,0.517
Ermington,11435,10737,151.054495,37,0.502,-33.814144,0.498
Tennyson Point,13790,1219,151.117286,43,0.494,-33.831448,0.506
One Mile (NSW),13085,413,152.114949,47,0.46,-32.770639,0.54
South Grafton,13582,6068,152.934605,43,0.513,-29.703242,0.487
Kemps Creek,12094,2268,150.790485,41,0.497,-33.88013,0.503
Ben Lomond (NSW),10286,152,151.658,53,0.49,-30.017361,0.51
Ettalong Beach,11445,4793,151.335289,52,0.527,-33.513696,0.473
Muscle Creek,12867,315,150.997754,34,0.473,-32.270449,0.527
Llangothlin,12364,129,151.686706,45,0.46,-30.123004,0.54
Hurstville,11964,29822,151.104909,32,0.508,-33.977595,0.492
Fernleigh,11508,297,153.497652,48,0.542,-28.760333,0.458
Coalcliff,10944,189,150.976081,47,0.492,-34.243453,0.508
Fawcetts Plain,11498,154,153.016604,45,0.497,-28.575884,0.503
Tenterfield,13792,4066,151.660453,53,0.529,-32.879833,0.471
Ramsgate Beach,13310,1660,151.1483,45,0.543,-33.981114,0.457
Nimmitabel,12966,320,149.280424,52,0.483,-36.518225,0.517
Termeil,13797,252,150.339308,53,0.496,-35.487171,0.504
Bronte,10594,6733,151.263838,37,0.505,-33.902328,0.495
Koraleigh,12195,353,143.4361,44,0.477,-35.1277,0.523
Abbotsbury,10002,4253,150.867768,38,0.512,-33.877538,0.488
Hawks Nest,11873,1223,152.177506,58,0.486,-32.671611,0.514
Cawongla,10864,192,153.103105,54,0.45,-28.591753,0.55
Minto Heights,12643,377,150.871353,44,0.517,-34.037543,0.483
Bukkulla,10648,140,151.129034,34,0.496,-29.503137,0.504
Abbotsford (NSW),10003,5373,151.129453,45,0.528,-33.852469,0.472
Somerton (NSW),13572,277,150.637122,42,0.471,-30.938654,0.529
Dolphin Point,11269,204,150.44539,54,0.485,-35.400376,0.515
Southgate,13604,184,153.024309,47,0.495,-29.608116,0.505
North Epping,12990,4526,151.087742,43,0.512,-33.759777,0.488
Shoal Bay (NSW),13539,1864,152.174979,58,0.501,-32.724136,0.499
Kinchela,12140,264,152.989527,52,0.494,-30.990568,0.506
Grose Wold,11786,635,150.688628,43,0.492,-33.602392,0.508
Concord West,11000,5914,151.087326,41,0.512,-33.848041,0.488
Miller,12617,3237,151.702595,36,0.502,-32.763539,0.498
Cobar,10949,3990,145.4147,35,0.49,-31.9338,0.51
Merewether Heights,12574,1400,151.736231,42,0.511,-32.948242,0.489
Hornsby Heights,11937,6305,151.095503,40,0.508,-33.670086,0.492
Warabrook,14140,1972,151.719957,44,0.534,-32.887886,0.466
Willow Tree,14305,308,150.726216,46,0.475,-31.648589,0.525
Salamander Bay,13463,4815,152.076399,52,0.532,-32.720937,0.468
Lochiel (NSW),12367,354,149.747092,46,0.482,-36.921998,0.518
Baw Baw (NSW),10234,260,149.6454,48,0.479,-34.7101,0.521
Gladesville,11638,11827,151.126964,39,0.52,-33.832894,0.48
Mullumbimby Creek,12829,548,153.46472,46,0.49,-28.558202,0.51
Uralla (NSW),14051,2743,151.502566,45,0.536,-30.642829,0.464
Urbenville,14057,321,152.548088,52,0.505,-28.472759,0.495
Clarence,10919,200,153.0463,51,0.533,-30.0367,0.467
Lakemba,12257,17023,151.075921,31,0.46,-33.920457,0.54
Cobaki,10947,205,153.471389,41,0.45,-28.175328,0.55
Yass River,14494,350,149.096916,43,0.517,-34.9072,0.483
Deepwater (NSW),11231,435,151.847464,56,0.485,-29.44232,0.515
Umina Beach,14007,16733,151.307503,44,0.52,-33.528746,0.48
Thirroul,13848,6083,150.923793,42,0.502,-34.314739,0.498
Cooperabung,11046,296,152.808768,42,0.454,-31.284405,0.546
Russell Vale,13448,1547,150.900783,39,0.501,-34.358093,0.499
Brayton,10554,173,149.964356,48,0.472,-34.647901,0.528
Lake Albert (NSW),12238,6192,147.381816,42,0.515,-35.166085,0.485
Valla Beach,14068,1313,153.008479,53,0.535,-30.591805,0.465
Haymarket,11877,7353,151.202796,27,0.519,-33.880777,0.481
Bargo,10198,4393,150.580103,40,0.497,-34.289443,0.503
Cootamundra,11053,6782,148.024671,49,0.512,-34.639089,0.488
Turramurra,13980,11919,151.129809,42,0.516,-33.733244,0.484
Collins Creek,10978,132,153.020382,53,0.47,-28.495304,0.53
Benandarah,10287,166,150.228251,55,0.42,-35.660936,0.58
Blackmans Point,10395,170,152.851836,54,0.479,-31.400666,0.521
Cumberland Reach,11156,181,150.896276,39,0.473,-33.455858,0.527
Belfield,10257,6322,151.083553,39,0.516,-33.902107,0.484
Coolagolite,11023,278,149.926402,53,0.48,-36.429324,0.52
Woodstock (Cowra - NSW),14394,701,151.0512,54,0.475,-29.2137,0.525
Shalvey,13523,3467,150.808375,30,0.52,-33.729373,0.48
Millingandi,12622,446,149.867994,61,0.493,-36.872365,0.507
Lochinvar,12368,784,151.45479,45,0.502,-32.699039,0.498
Gosford,11722,3499,151.360909,35,0.471,-33.451762,0.529
Beckom,10244,125,146.959974,41,0.427,-34.32731,0.573
Grays Point,11743,3125,151.081652,41,0.503,-34.05884,0.497
Sandringham (NSW),13478,1238,151.139252,46,0.521,-33.998763,0.479
Keith Hall,12086,171,153.531951,43,0.453,-28.889839,0.547
Cooyal,11055,114,149.757343,42,0.427,-32.450436,0.573
Parkesbourne,13152,170,149.521444,52,0.426,-34.761895,0.574
Moruya Heads,12735,976,150.132617,50,0.509,-35.913602,0.491
Binya,10373,140,146.337827,37,0.445,-34.228297,0.555
Narooma,12900,2605,150.119086,57,0.492,-36.202678,0.508
Abernethy,10011,348,151.396677,32,0.477,-32.883242,0.523
Koonorigan,12188,303,153.237965,48,0.489,-28.67516,0.511
Cringila,11116,2198,150.871375,36,0.482,-34.471575,0.518
Terranora,13802,2926,153.502795,40,0.505,-28.240724,0.495
Mount Rankin,12786,379,149.496674,43,0.478,-33.316695,0.522
Eveleigh,11471,663,151.19113,31,0.556,-33.897075,0.444
Howes Valley,11948,124,150.835756,50,0.463,-32.844284,0.537
Lisarow,12343,5136,151.371283,40,0.51,-33.380843,0.49
Shelly Beach (NSW),13535,1318,151.485687,45,0.503,-33.368675,0.497
Northmead,13023,11215,150.994336,37,0.527,-33.783849,0.473
Erina,11433,4774,146.7306,59,0.571,-29.5364,0.429
Red Head,13329,514,152.531451,52,0.522,-32.058603,0.478
La Perouse,12230,399,151.231507,43,0.506,-33.989634,0.494
Burra (Queanbeyan-Palerang Regional - NSW),10697,794,149.2299,46,0.509,-35.5659,0.491
The Hill,13826,1943,151.777382,33,0.501,-32.929808,0.499
Rockdale,13379,15534,151.137624,32,0.482,-33.952747,0.518
Yanderra,14461,661,150.569254,35,0.513,-34.324175,0.487
Erskineville,11439,8014,151.186192,34,0.486,-33.902234,0.514
Tallimba,13732,184,146.879692,44,0.447,-33.994402,0.553
Bishops Bridge,10380,248,151.467064,45,0.5,-32.746391,0.5
Palmers Channel,13135,119,153.279261,53,0.5,-29.459505,0.5
Narraweena,12910,6608,151.274687,43,0.524,-33.749912,0.476
Oxley Park,13110,3112,150.79264,32,0.52,-33.771261,0.48
Linden (NSW),12335,501,150.504477,44,0.485,-33.715529,0.515
Parma,13155,169,150.552694,48,0.515,-34.963298,0.485
Mount Kembla,12769,1068,150.820503,40,0.523,-34.432799,0.477
Coniston,11010,2268,150.885559,38,0.504,-34.436545,0.496
Huntleys Cove,11960,750,151.144587,50,0.526,-33.839798,0.474
Beaumont Hills,10243,9042,150.946875,35,0.503,-33.703416,0.497
Colyton,10987,8439,150.793433,35,0.504,-33.776657,0.496
East Tamworth,11363,5342,150.949994,42,0.544,-31.10529,0.456
Barooga,10205,1817,145.688503,44,0.492,-35.913566,0.508
Conjola Park,11012,340,150.452135,51,0.484,-35.371593,0.516
Tatham,13773,207,153.158653,41,0.527,-28.928919,0.473
Avalon Beach,10111,9905,151.330596,44,0.513,-33.636325,0.487
Tuncurry,13969,6186,152.499268,61,0.524,-32.174624,0.476
Euberta,11451,139,147.190921,46,0.493,-35.059159,0.507
South Hurstville,13587,5147,151.104909,37,0.52,-33.977595,0.48
Araluen (NSW),10070,168,149.812149,55,0.461,-35.64693,0.539
Cliftleigh,10932,888,151.523259,24,0.5,-32.784916,0.5
Kundabung,12209,630,152.823012,43,0.503,-31.208615,0.497
Silverwater (Lake Macquarie - NSW),13546,301,151.5586,44,0.536,-33.103,0.464
Guildford (NSW),11790,22331,150.988073,31,0.493,-33.867084,0.507
Rappville,13318,169,152.953134,44,0.448,-29.084845,0.552
Palmers Island,13136,458,153.288677,47,0.502,-29.420289,0.498
Moruya,12734,3982,150.132617,51,0.5,-35.913602,0.5
Lavender Bay,12285,941,151.208015,39,0.518,-33.84307,0.482
Fingal Head,11519,592,153.565709,45,0.502,-28.204156,0.498
Fishermans Paradise,11523,477,150.448704,51,0.474,-35.229709,0.526
Scotland Island,13505,579,151.290116,45,0.486,-33.641752,0.514
Biniguy,10369,147,150.136946,37,0.48,-29.580064,0.52
Rossmore (NSW),13420,2286,150.772763,39,0.476,-33.945965,0.524
Numbaa,13035,111,150.678484,45,0.451,-34.873429,0.549
Bowman,10531,139,151.780768,50,0.5,-31.922744,0.5
Minimbah,12636,208,152.361412,47,0.476,-32.148267,0.524
Revesby Heights,13356,1667,151.015063,35,0.527,-33.968802,0.473
Forest Hill (NSW),11544,2274,151.55001,28,0.463,-32.707981,0.537
Blackville,10398,113,150.30281,46,0.482,-31.65821,0.518
East Maitland,11360,11782,151.589963,40,0.515,-32.75112,0.485
Berrambool,10312,456,149.917402,52,0.508,-36.8788,0.492
Googong,11704,2690,149.230757,32,0.505,-35.391776,0.495
Glenthorne,11680,231,152.480283,50,0.489,-31.914405,0.511
Rock Valley,13378,265,153.174403,50,0.53,-28.747359,0.47
Woodlands (Wingecarribee - NSW),14388,272,150.3995,48,0.465,-34.4082,0.535
Eltham (NSW),11409,343,153.409529,45,0.523,-28.754287,0.477
Barnsley,10204,1747,151.590415,36,0.5,-32.932412,0.5
Castle Rock,10848,175,150.732863,43,0.48,-32.210062,0.52
Bombowlee,10459,293,148.279996,47,0.454,-35.278606,0.546
Cassilis (NSW),10844,304,149.980435,42,0.487,-32.007883,0.513
Cartwright,10838,2370,147.389575,37,0.497,-35.069754,0.503
Edensor Park,11377,9772,150.875292,36,0.512,-33.877057,0.488
Lilli Pilli (Sutherland Shire - NSW),12322,1390,116.3409,42,0.505,-33.3576,0.495
Cordeaux Heights,11070,4559,150.838399,39,0.495,-34.439801,0.505
Warren,14171,1389,151.9204,43,0.507,-27.4503,0.493
Galston,11582,3139,151.043059,44,0.512,-33.652661,0.488
Badgerys Creek,10132,225,150.741351,37,0.495,-33.883376,0.505
Blackalls Park,10390,2753,151.584635,42,0.519,-33.000441,0.481
St Clair (Penrith - NSW),13632,19897,150.7879,34,0.503,-33.7979,0.497
Kurrajong Hills,12220,668,150.639331,44,0.527,-33.541464,0.473
Yallaroi,14456,118,150.480818,35,0.433,-29.119429,0.567
West Ryde,14251,13394,151.088724,35,0.512,-33.807712,0.488
Meadow Flat,12549,309,149.921282,44,0.505,-33.434919,0.495
Jerseyville,12022,112,153.035331,54,0.496,-30.9351,0.504
Mummel,12835,112,149.593517,43,0.526,-34.688445,0.474
Westmead,14261,16309,150.986608,33,0.496,-33.805332,0.504
Georgetown (NSW),11603,1960,151.7286,37,0.526,-32.907814,0.474
Tregear,13934,3886,150.795678,29,0.508,-33.751082,0.492
East Corrimal,11348,3405,150.91118,38,0.5,-34.376363,0.5
Bournda,10524,152,149.912998,46,0.461,-36.836801,0.539
Tweed Heads,13984,8176,153.543747,56,0.522,-28.198486,0.478
Cedar Point,10871,170,152.992978,51,0.453,-28.681713,0.547
Thornton (NSW),13851,8062,151.638803,35,0.504,-32.776905,0.496
Kareela,12073,3459,151.082733,42,0.501,-34.014668,0.499
Winston Hills,14335,11674,150.987795,40,0.516,-33.776054,0.484
Tyagarah,13993,152,153.556171,51,0.517,-28.604443,0.483
Billinudgel,10355,218,153.528274,47,0.481,-28.504114,0.519
Luddenham,12419,1828,150.693079,35,0.507,-33.883725,0.493
Lambton,12264,4909,151.690553,39,0.523,-32.932574,0.477
Woronora,14420,2201,150.934492,42,0.492,-34.111532,0.508
Corbie Hill,11068,228,146.456385,49,0.413,-34.571538,0.587
Conargo,10998,123,145.181217,46,0.405,-35.302371,0.595
Maroubra,12501,30688,151.246592,37,0.516,-33.948856,0.484
Murrurundi,12864,1038,150.834935,48,0.534,-31.763687,0.466
Belrose,10283,8780,151.278773,45,0.519,-33.761674,0.481
Yeoval,14507,430,148.649032,45,0.52,-32.751829,0.48
Mundongo,12840,207,148.25641,47,0.531,-35.291721,0.469
Manton (NSW),12481,294,148.998237,45,0.512,-34.85035,0.488
Dorrigo,11278,1191,152.671483,55,0.542,-30.281126,0.458
Marlee,12494,219,152.319147,48,0.495,-31.798881,0.505
Blairmount,10401,422,150.799611,29,0.487,-34.049485,0.513
Lanitza,12270,297,152.996931,46,0.463,-29.883644,0.537
Hannam Vale,11849,183,152.591298,53,0.506,-31.712975,0.494
Valentine,14065,5516,151.635155,45,0.504,-33.008886,0.496
Schofields,13502,4983,150.888428,32,0.496,-33.697217,0.504
Wyee Point,14439,1129,151.520566,41,0.492,-33.143718,0.508
Bourkelands,10523,2852,147.355213,34,0.519,-35.150342,0.481
Wallalong,14104,1030,151.649868,37,0.498,-32.696224,0.502
Tatton,13775,2616,147.365282,37,0.514,-35.153335,0.486
Lake Heights,12248,3845,150.872531,39,0.502,-34.481581,0.498
Jesmond,12023,3045,151.690858,29,0.496,-32.903131,0.504
Moorong,12715,177,147.318106,30,0.542,-35.122246,0.458
Dungowan,11321,398,151.12012,39,0.496,-31.214552,0.504
Dean Park,11224,3227,150.860027,34,0.514,-33.73616,0.486
St Ives (NSW),13639,17300,151.158551,42,0.524,-33.730601,0.476
Macquarie Links,12435,1360,150.867561,35,0.496,-33.982185,0.504
Tullamore,13954,424,147.564026,52,0.462,-32.631463,0.538
Llanarth (NSW),12362,2198,149.557591,37,0.518,-33.399527,0.482
Broadwater (Bega Valley - NSW),10579,117,150.8136,44,0.5,-33.7679,0.5
Tumut,13966,6230,148.271903,43,0.512,-35.339564,0.488
Chester Hill,10899,12814,151.001185,35,0.51,-33.883157,0.49
Yerong Creek,14508,352,147.061231,43,0.537,-35.387447,0.463
Jindera,12032,2222,146.885946,37,0.501,-35.950071,0.499
Way Way,14203,239,152.946259,49,0.502,-30.772886,0.498
Maryville,12518,1444,151.753662,37,0.501,-32.911844,0.499
Illabo,11972,144,147.529705,47,0.527,-35.587981,0.473
Cambridge Gardens,10767,2014,150.721712,35,0.512,-33.735558,0.488
Clareville,10923,742,151.313321,54,0.527,-33.634905,0.473
Kurrajong Heights,12219,1342,150.628716,43,0.509,-33.523862,0.491
Werombi,14232,930,150.57174,39,0.496,-33.988918,0.504
Pilliga,13205,217,148.890833,41,0.475,-30.351861,0.525
Utungun,14062,168,152.833063,50,0.488,-30.730063,0.512
The Rock,13838,1236,151.208782,46,0.504,-33.859251,0.496
Bilambil Heights,10348,3364,153.490119,43,0.508,-28.212553,0.492
Koorawatha,12192,427,148.553887,53,0.471,-34.039891,0.529
Killara (NSW),12129,10574,151.162047,40,0.525,-33.766376,0.475
Wyee,14438,2406,151.520566,46,0.511,-33.143718,0.489
Braunstone,10550,294,152.959309,50,0.488,-29.802551,0.512
Morisset Park,12724,743,151.530773,42,0.522,-33.121406,0.478
Fairfield West,11480,11575,150.922057,36,0.51,-33.868955,0.49
Coal Point,10943,1723,151.612172,50,0.506,-33.041296,0.494
Hill Top (Wingecarribee - NSW),11905,2674,150.4782,33,0.491,-34.344,0.509
Herons Creek,11897,247,152.72671,45,0.482,-31.587978,0.518
Brightwaters,10570,903,151.545925,46,0.505,-33.114455,0.495
Limekilns,12330,111,149.770699,39,0.505,-33.24008,0.495
St Ives Chase,13640,3154,151.163446,42,0.509,-33.707895,0.491
Hawkesbury Heights,11872,456,150.650802,36,0.511,-33.665114,0.489
Enfield (NSW),11421,2833,151.684977,39,0.505,-32.740212,0.495
Currarong,11176,452,150.824214,59,0.47,-35.018739,0.53
Paterson (NSW),13159,892,151.618293,41,0.512,-32.599153,0.488
Wyongah,14448,2020,151.49038,36,0.51,-33.274859,0.49
McLeans Ridges,12545,510,153.407172,46,0.505,-28.79311,0.495
Coopers Shoot,11049,265,153.565131,54,0.5,-28.701278,0.5
Carinda,10814,158,147.691173,44,0.475,-30.461198,0.525
Holroyd,11925,1275,150.993334,31,0.475,-33.829836,0.525
Narrabri,12903,7606,149.756588,39,0.512,-30.34053,0.488
Braidwood,10547,1651,149.800868,46,0.521,-35.437701,0.479
Blakehurst,10403,6219,151.112314,41,0.511,-33.988743,0.489
Renwick,13350,573,117.9123,39,0.536,-35.0232,0.464
Upper Dartbrook,14022,146,150.697181,42,0.493,-31.938204,0.507
Hammondville,11844,3493,150.953727,39,0.526,-33.948113,0.474
Mount Vernon,12796,1192,150.807887,38,0.483,-33.862377,0.517
Holsworthy,11926,5476,150.949972,30,0.461,-33.950403,0.539
Oakwood (NSW),13061,164,151.0584,44,0.423,-29.6408,0.577
Englorie Park,11423,416,150.795131,31,0.533,-34.082052,0.467
Hillsdale,11911,5501,151.231341,33,0.501,-33.952685,0.499
Maules Creek,12526,113,150.080679,42,0.469,-30.483004,0.531
Glossodia,11684,2828,150.765856,33,0.493,-33.535657,0.507
Raworth,13325,1788,151.607064,34,0.513,-32.735981,0.487
Riverview (NSW),13370,3354,150.631177,37,0.44,-33.734273,0.56
St Albans (NSW),13630,158,150.970263,62,0.49,-33.290934,0.51
Urliup,14060,194,153.398923,54,0.487,-28.257434,0.513
Berkshire Park,10305,2134,150.79576,34,0.373,-33.672237,0.627
Mudgee,12812,10923,149.586126,37,0.512,-32.59072,0.488
Neutral Bay,12934,10488,151.222401,36,0.531,-33.831529,0.469
Saumarez Ponds,13495,438,151.568904,41,0.515,-30.507476,0.485
Burroway,10715,118,148.263375,43,0.484,-32.057228,0.516
Eureka (NSW),11461,343,153.438375,45,0.513,-28.683763,0.487
Henty (NSW),11892,1237,147.035781,46,0.502,-35.517186,0.498
Wattle Ponds,14193,1123,151.180978,36,0.487,-32.516603,0.513
Darling Point,11211,4190,151.236683,48,0.547,-33.873808,0.453
Barraba,10206,1410,150.610642,55,0.516,-30.378339,0.484
Centennial Park (NSW),10873,2376,151.2324,35,0.517,-33.8979,0.483
Glendon Brook,11661,266,151.3968,39,0.466,-32.4776,0.534
Goonellabah,11711,12900,153.317704,41,0.535,-28.819841,0.465
Bonshaw (NSW),10473,133,151.275344,35,0.492,-29.050296,0.508
Charmhaven,10889,2551,151.502912,37,0.504,-33.229912,0.496
Budgewoi,10642,3360,151.584067,45,0.503,-33.21956,0.497
Maitland Vale,12451,135,151.559855,41,0.453,-32.677299,0.547
West Wollongong,14255,4827,150.867207,34,0.508,-34.424649,0.492
Killarney Heights,12130,4469,151.216125,41,0.517,-33.773728,0.483
Denistone,11238,3751,151.066085,42,0.503,-33.802382,0.497
Bogangar,10439,3060,153.542241,42,0.501,-28.332381,0.499
Dundee,11314,155,151.865748,49,0.478,-29.566687,0.522
Newcastle West,12951,618,151.761141,36,0.453,-32.924908,0.547
Peak Hill (NSW),13166,1106,148.185188,50,0.504,-32.725328,0.496
Mount Keira,12768,1665,150.845276,38,0.492,-34.395938,0.508
Leycester,12314,149,153.19986,49,0.507,-28.782333,0.493
Beaumont (NSW),10242,125,150.561629,57,0.508,-34.781805,0.492
Neath,12917,490,151.408291,50,0.508,-32.827058,0.492
Little Forest,12351,161,150.394697,57,0.476,-35.295789,0.524
Braemar,10545,447,148.6702,33,0.495,-36.1022,0.505
Lane Cove West,12268,2637,151.153281,36,0.505,-33.806246,0.495
Aberdeen (NSW),10007,2084,151.080554,37,0.497,-29.996058,0.503
Worrigee,14423,5068,150.626074,32,0.517,-34.89037,0.483
Murrays Beach,12854,637,150.766973,38,0.514,-34.927534,0.486
Dalwood (Ballina - NSW),11195,234,153.4151,46,0.524,-28.8939,0.476
Millers Point,12619,1482,151.203519,47,0.491,-33.858315,0.509
Tathra,13774,1675,149.985917,52,0.498,-36.729728,0.502
Padstow,13120,13306,151.030955,39,0.508,-33.971073,0.492
Croydon (NSW),11134,10612,151.114771,40,0.523,-33.883163,0.477
Bray Park (NSW),10552,795,150.549363,44,0.544,-34.157496,0.456
Torryburn (Dungog - NSW),13920,142,151.5822,48,0.48,-32.4738,0.52
Warilla,14151,6449,150.85995,44,0.51,-34.552573,0.49
Wendoree Park,14224,134,151.155631,39,0.448,-33.455552,0.552
St Marys (NSW),13643,12195,150.774015,34,0.504,-33.76676,0.496
Brooms Head,10603,212,153.33314,61,0.481,-29.604668,0.519
Yetman,14514,207,150.780675,42,0.474,-28.902557,0.526
Kirkham,12171,699,150.71674,40,0.497,-34.038536,0.503
South Windsor,13601,5892,150.804452,34,0.516,-33.620168,0.484
Castle Cove,10845,2554,151.199948,44,0.501,-33.784165,0.499
Cronulla,11119,18070,151.153662,39,0.507,-34.051972,0.493
Putta Bucca,13278,224,149.584181,47,0.514,-32.570896,0.486
Kahibah,12048,2464,151.712351,38,0.52,-32.961795,0.48
Mitchells Flat,12651,209,151.288741,40,0.531,-32.558246,0.469
Rand,13311,204,146.55696,44,0.451,-34.744609,0.549
Callala Bay,10757,2196,150.718141,48,0.499,-34.98761,0.501
Gundaroo,11805,1146,149.20979,41,0.492,-35.127745,0.508
Quaama,13285,281,149.87009,54,0.523,-36.464379,0.477
Lower Belford,12401,392,151.286484,43,0.475,-32.608791,0.525
East Albury,11344,6098,146.929105,39,0.528,-36.075617,0.472
Sylvania Waters,13718,3169,151.115847,41,0.498,-34.019802,0.502
Tyndale,13997,175,153.148717,52,0.455,-29.56176,0.545
Whitebridge,14276,2612,151.711319,41,0.517,-32.981227,0.483
Killarney Vale,12131,7216,151.459783,39,0.525,-33.369601,0.475
Fitzroy Falls,11529,216,150.478478,46,0.518,-34.640976,0.482
Carlingford,10818,24394,151.047719,39,0.509,-33.763237,0.491
Warragamba,14158,1241,150.604819,36,0.511,-33.889727,0.489
Marsden Park,12505,1008,150.832318,40,0.459,-33.697585,0.541
Claymore,10924,2644,150.810024,23,0.566,-34.045524,0.434
Currans Hill,11175,5309,150.764007,31,0.511,-34.045179,0.489
Possum Creek,13252,284,153.491771,45,0.504,-28.668944,0.496
Glenreagh,11675,900,152.978971,42,0.483,-30.05106,0.517
Gilgandra,11619,3126,148.663131,46,0.517,-31.711715,0.483
Peats Ridge,13172,377,151.229736,37,0.515,-33.351199,0.485
South Bathurst,13577,1583,149.578565,41,0.535,-33.440113,0.465
Nana Glen,12889,1055,153.004853,42,0.51,-30.136199,0.49
Frazers Creek,11560,180,152.647378,50,0.464,-31.413193,0.536
Willoughby (NSW),14303,6540,151.1986,39,0.527,-33.801483,0.473
Emerald Beach,11411,2234,153.182459,42,0.522,-30.166597,0.478
Greenhill (NSW),11763,731,152.800013,40,0.501,-31.060154,0.499
Terania Creek,13794,185,153.29947,46,0.5,-28.609209,0.5
Eungella (NSW),11460,338,153.311519,44,0.449,-28.353761,0.551
Lewis Ponds,12312,147,149.2407,42,0.523,-33.2122,0.477
Emu Plains,11418,8421,150.653269,39,0.528,-33.754097,0.472
South Lismore,13589,1879,153.269477,39,0.473,-28.809302,0.527
Missabotti,12649,298,152.805912,50,0.515,-30.567278,0.485
Taren Point,13766,1734,151.125456,57,0.549,-34.012545,0.451
Point Clare,13231,3731,151.320952,44,0.525,-33.436772,0.475
South Murwillumbah,13593,1114,153.400759,47,0.478,-28.32897,0.522
St Peters (NSW),13644,3145,151.180126,34,0.494,-33.911062,0.506
Spring Hill (Cabonne - NSW),13615,502,145.2023,38,0.483,-38.3564,0.517
Dunedoo,11316,1221,149.395838,49,0.503,-32.016184,0.497
Tarago,13758,426,149.628735,44,0.479,-35.084503,0.521
Eatonsville,11370,216,152.831293,46,0.511,-29.640182,0.489
Mount Austin,12748,3957,147.358403,39,0.519,-35.133028,0.481
Berry,10322,2667,148.494076,56,0.545,-33.187179,0.455
Rosebank,13401,413,153.392176,50,0.524,-28.663494,0.476
Cattai,10859,790,150.909515,41,0.497,-33.555841,0.503
Bugaldie,10646,144,149.110038,52,0.483,-31.122204,0.517
Sapphire Beach,13491,2084,153.147953,46,0.514,-30.233163,0.486
Mirador,12644,377,149.9199,48,0.497,-36.8768,0.503
North Wollongong,13017,2608,150.895575,27,0.47,-34.41436,0.53
Terramungamine,13801,271,148.573778,38,0.498,-32.153936,0.502
Merimbula,12575,3544,149.910553,55,0.523,-36.887762,0.477
Singleton Heights,13550,4693,151.162145,33,0.5,-32.546727,0.5
Robin Hill,13375,925,149.550475,44,0.47,-33.41473,0.53
Curlwaa,11170,393,141.965558,46,0.46,-34.09281,0.54
McKellars Park,12544,227,150.154148,42,0.478,-33.47156,0.522
Airds,10022,2926,150.829041,30,0.544,-34.084468,0.456
Green Point (Central Coast - NSW),11753,6405,151.3829,45,0.526,-33.4532,0.474
Springvale (Wagga Wagga - NSW),13628,1733,147.3181,39,0.49,-35.1708,0.51
Bective,10245,206,150.772119,47,0.485,-30.988172,0.515
Limbri,12327,108,151.154777,56,0.49,-31.039192,0.51
Lapstone,12276,961,150.636657,43,0.492,-33.774112,0.508
West Albury,14239,3851,146.890443,47,0.543,-36.073344,0.457
Mortlake (NSW),12729,1063,151.10698,38,0.531,-33.843435,0.469
South Guyra,13586,335,151.67116,43,0.476,-30.235762,0.524
Werrington,14235,4031,150.733755,33,0.511,-33.740586,0.489
Davidson,11219,2849,151.194197,43,0.508,-33.738731,0.492
Boomi,10489,201,152.603955,43,0.461,-28.470421,0.539
Harris Park,11860,5799,151.008961,31,0.464,-33.822427,0.536
Maianbar,12443,505,151.129788,46,0.511,-34.081826,0.489
Nabiac,12885,1252,152.377769,47,0.484,-32.098694,0.516
North Albury,12977,6058,146.931552,38,0.506,-36.062952,0.494
Lismore Heights,12345,2193,153.301267,40,0.525,-28.80624,0.475
Michelago,12598,562,150.865056,39,0.495,-33.94239,0.505
Voyager Point,14079,1668,150.97238,35,0.491,-33.964547,0.509
North Willoughby,13016,4172,151.195787,39,0.533,-33.793089,0.467
Seven Hills (NSW),13518,19326,150.934257,36,0.496,-33.775477,0.504
Turners Flat,13976,148,152.7,44,0.5,-31.017039,0.5
Cullen Bullen,11148,279,150.032518,48,0.495,-33.303402,0.505
Hyland Park,11968,429,152.999909,46,0.493,-30.615511,0.507
Croudace Bay,11128,574,151.643488,41,0.513,-33.00492,0.487
Temora,13784,4693,147.533742,47,0.509,-34.446858,0.491
Dolans Bay,11266,598,151.126746,43,0.503,-34.05968,0.497
Binalong,10362,543,148.628209,44,0.484,-34.670932,0.516
Numbugga,13038,125,149.711811,50,0.524,-36.652366,0.476
Henley,11891,469,151.135943,46,0.489,-33.842216,0.511
Brombin,10593,116,152.626737,45,0.491,-31.453817,0.509
Vacy,14063,625,151.57715,39,0.487,-32.543458,0.513
Billywillinga,10357,194,149.43985,44,0.51,-33.273015,0.49
Rock Forest,13377,198,149.396538,47,0.507,-33.354231,0.493
Dora Creek,11277,1643,151.501807,50,0.484,-33.083587,0.516
Oakdale (NSW),13054,1843,150.513639,37,0.486,-34.078174,0.514
Marchmont,12487,229,148.954609,39,0.539,-34.876217,0.461
Mondrook,12676,175,152.414571,53,0.503,-31.906971,0.497
Menah,12566,152,149.542687,44,0.486,-32.548716,0.514
Menai,12567,10304,151.063767,38,0.51,-33.998425,0.49
Morts Estate,12732,628,150.168076,41,0.49,-33.468424,0.51
Monaltrie,12674,195,153.278455,47,0.451,-28.851075,0.549
Surry Hills,13699,16412,151.213328,34,0.425,-33.888821,0.575
Brucedale,10613,179,147.413057,43,0.503,-35.001237,0.497
Roseville,13412,10082,151.195195,38,0.515,-33.778902,0.485
Tullimbar,13958,532,150.739102,35,0.519,-34.577122,0.481
Eagle Vale,11341,5788,150.814153,33,0.501,-34.037882,0.499
Cudmirrah,11145,275,150.557818,52,0.462,-35.19804,0.538
Bemboka,10284,577,149.572964,51,0.494,-36.629917,0.506
Marmong Point,12498,758,151.618115,45,0.495,-32.983019,0.505
Woomargama,14413,157,147.247561,48,0.491,-35.832854,0.509
Mount Arthur,12747,169,148.935597,50,0.506,-32.554619,0.494
Boomerang Beach,10487,298,152.541677,44,0.461,-32.339201,0.539
Baan Baa,10120,163,149.966153,45,0.435,-30.60138,0.565
Leconfield,12291,146,151.392441,43,0.468,-32.651348,0.532
North Arm Cove,12979,445,152.037583,59,0.494,-32.65912,0.506
Myall Park (NSW),12873,198,146.108252,41,0.497,-34.177539,0.503
Glendale (NSW),11658,3097,151.650189,38,0.516,-32.926823,0.484
Mount Olive (Singleton - NSW),12781,146,151.2251,48,0.517,-32.4078,0.483
Hastings Point,11868,653,153.576246,67,0.544,-28.361966,0.456
East Kurrajong,11356,2195,150.764601,38,0.483,-33.514481,0.517
Euroka,11464,352,152.796699,47,0.486,-31.079521,0.514
Bingie,10367,196,150.153153,57,0.49,-36.01113,0.51
East Kempsey,11354,1358,152.845507,38,0.53,-31.082158,0.47
Congarinni,11005,312,152.879726,49,0.482,-30.684156,0.518
Rushes Creek,13445,106,150.602886,54,0.43,-30.803044,0.57
Brierfield,10568,333,152.893178,44,0.488,-30.503895,0.512
Wantabadgery,14136,187,147.752829,46,0.49,-35.042064,0.51
Mount Frome,12760,136,149.644578,50,0.463,-32.605845,0.537
Oakhurst (NSW),13058,6955,150.834819,32,0.502,-33.744048,0.498
Killingworth (NSW),12137,679,151.560841,37,0.477,-32.934544,0.523
Bellevue Hill,10271,10716,151.258935,37,0.513,-33.887189,0.487
Charlotte Bay,10887,172,152.505783,46,0.488,-32.355227,0.512
North Tumbulgum,13012,256,153.470406,46,0.465,-28.26807,0.535
Newington (NSW),12953,5802,151.054828,35,0.506,-33.839276,0.494
Collingullie,10976,221,147.11146,37,0.5,-35.071845,0.5
Valery,14066,140,152.944546,47,0.543,-30.386986,0.457
Mount View,12798,127,151.270297,53,0.5,-32.852431,0.5
Frogmore,11571,132,148.85376,47,0.507,-34.233648,0.493
Yarramundi,14477,840,150.672695,36,0.483,-33.627259,0.517
Elong Elong,11406,115,149.026202,55,0.508,-32.116012,0.492
Avoca Beach,10114,4584,151.432387,41,0.502,-33.464937,0.498
Burwood (NSW),10718,16030,151.103682,30,0.521,-33.877423,0.479
Canoelands,10794,175,151.061148,41,0.47,-33.508714,0.53
Korora,12197,2488,153.129008,45,0.511,-30.257145,0.489
Kogarah Bay,12182,2022,151.123296,41,0.505,-33.979117,0.495
Maryland (Newcastle - NSW),12514,7694,151.662,36,0.507,-32.8814,0.493
Morton,12730,217,150.304367,52,0.461,-35.419406,0.539
Wetherill Park,14264,6127,150.913204,39,0.504,-33.847512,0.496
Stratheden,13674,217,152.954303,46,0.444,-28.80272,0.556
Pyrmont,13284,12813,151.19393,34,0.494,-33.869709,0.506
Wyoming,14445,10134,151.350776,42,0.526,-33.40485,0.474
Round Mountain,13425,143,153.549795,47,0.486,-28.36206,0.514
Berala,10299,9049,151.031033,34,0.482,-33.871904,0.518
Coomba Bay,11037,123,152.443552,59,0.492,-32.263911,0.508
Ashmont,10101,3828,147.329956,33,0.528,-35.12318,0.472
Dum Dum,11304,117,153.334075,56,0.39,-28.387826,0.61
Bullaburra,10656,1230,150.41364,43,0.498,-33.722751,0.502
Chifley (NSW),10901,3233,151.240248,42,0.517,-33.976546,0.483
Coorabell,11051,420,153.481025,48,0.54,-28.634356,0.46
Lansdowne (Mid-Coast - NSW),12273,589,152.5205,50,0.504,-31.7586,0.496
Burrill Lake,10712,1465,150.449603,52,0.503,-35.387189,0.497
Canterbury (NSW),10797,7233,151.121145,35,0.507,-33.910848,0.493
Bredbo,10559,352,149.150191,43,0.499,-35.959129,0.501
Sofala,13569,131,149.689626,61,0.42,-33.080698,0.58
Manar,12462,118,143.936712,43,0.517,-32.471391,0.483
Ropes Crossing,13397,6171,150.810841,30,0.517,-33.77448,0.483
Mangoplah,12470,309,147.253056,42,0.48,-35.375169,0.52
Elland,11399,332,152.928726,51,0.461,-29.756181,0.539
Young,14518,10295,148.297921,40,0.518,-34.31341,0.482
Richmond (NSW),13360,5482,150.721891,42,0.525,-33.582355,0.475
Harrington,11858,3033,150.742232,61,0.506,-34.023239,0.494
Balmain,10164,10453,151.190598,40,0.52,-33.857833,0.48
Kitchener,12174,479,151.36667,39,0.497,-32.879602,0.503
Sans Souci,13489,10304,151.133074,44,0.526,-33.990614,0.474
Cabarita Beach,10737,103,153.569695,40,0.525,-28.332149,0.475
Phegans Bay,13192,432,151.308453,41,0.483,-33.48859,0.517
Old Guildford,13077,2663,150.988073,28,0.497,-33.867084,0.503
Guildford West,11791,4916,150.972299,32,0.507,-33.851099,0.493
Martindale,12510,160,150.67,48,0.472,-32.454407,0.528
Trundle,13940,687,147.709904,50,0.488,-32.922887,0.512
Leichhardt (NSW),12297,14625,151.157057,36,0.52,-33.883793,0.48
Kembla Grange,12092,252,150.808912,43,0.51,-34.47078,0.49
Yennora,14506,1615,150.969356,40,0.504,-33.860889,0.496
Lurnea,12422,9311,150.896105,33,0.512,-33.931947,0.488
Burringbar,10713,852,153.432836,44,0.519,-28.44671,0.481
Spring Terrace,13620,125,149.069863,44,0.488,-33.402381,0.512
Katoomba,12077,7964,150.311589,46,0.525,-33.714043,0.475
North Boambee Valley,12983,2002,153.071517,49,0.546,-30.306482,0.454
Collaroy Plateau,10971,4767,151.286514,39,0.506,-33.728047,0.494
Gordon (NSW),11718,7668,151.761866,40,0.522,-32.045612,0.478
Clybucca,10940,144,152.965545,48,0.442,-30.954389,0.558
Yarranbella,14478,193,152.778618,47,0.466,-30.727507,0.534
Lue,12420,192,149.842171,46,0.477,-32.65414,0.523
Allambie Heights,10036,7009,151.248864,41,0.514,-33.765076,0.486
Peakhurst Heights,13169,2336,151.057596,44,0.5,-33.968127,0.5
Lake Tabourie,12254,651,150.398471,51,0.494,-35.44375,0.506
Ulong,14005,233,146.841971,44,0.47,-35.26049,0.53
Brocklehurst,10583,361,148.688877,41,0.475,-32.150735,0.525
Brewongle,10564,124,149.67541,54,0.479,-33.48878,0.521
Merewether,12573,10964,151.736231,38,0.501,-32.948242,0.499
Mathoura,12522,938,144.9026,51,0.503,-35.81262,0.497
Ultimo,14006,8845,151.197272,26,0.519,-33.878416,0.481
Cookamidgera,11016,164,148.324968,48,0.442,-33.2249,0.558
Wallarah,14109,370,151.456522,38,0.497,-33.241851,0.503
Bowral,10536,10335,150.449304,52,0.539,-34.501493,0.461
West Bathurst,14241,3672,149.564797,35,0.514,-33.412695,0.486
Tullymorgan,13960,132,153.09836,48,0.481,-29.38348,0.519
Diamond Beach,11251,886,152.534432,51,0.518,-32.043994,0.482
St Andrews (NSW),13631,5730,150.8306,34,0.495,-34.0245,0.505
Kingsford (NSW),12156,15482,151.227811,27,0.489,-33.924922,0.511
Yanco,14460,984,146.40345,18,0.521,-34.630843,0.479
Bermagui,10307,1536,150.06439,56,0.514,-36.422732,0.486
Gorokan,11721,8367,151.510399,42,0.512,-33.257544,0.488
Canley Heights,10791,10974,150.923895,35,0.513,-33.883633,0.487
Dombarton,11270,146,150.770419,39,0.536,-34.456405,0.464
Port Macquarie,13246,44830,151.907551,47,0.527,-32.589168,0.473
Glenning Valley,11672,2019,151.425996,38,0.525,-33.353709,0.475
Rockley,13380,182,149.552941,51,0.481,-33.547323,0.519
Condobolin,11002,3486,147.15218,38,0.506,-33.089095,0.494
Hamlyn Terrace,11843,6069,151.469872,36,0.525,-33.250574,0.475
Cranebrook,11105,15759,150.709986,32,0.511,-33.71431,0.489
Taree,13764,16197,152.463802,45,0.522,-31.922894,0.478
Rosehill (NSW),13408,3806,151.024558,31,0.469,-33.819992,0.531
Montefiores,12685,592,148.944461,40,0.501,-32.538869,0.499
West Ballina,14240,3023,153.54417,54,0.516,-28.86333,0.484
Mount Pritchard,12785,9955,150.90304,35,0.504,-33.894817,0.496
Windeyer (NSW),14322,176,149.5453,53,0.492,-32.77632,0.508
Manildra,12473,760,148.696347,44,0.509,-33.186578,0.491
Bega,10253,4668,150.919441,43,0.519,-31.16588,0.481
The Pocket,13834,271,153.486046,44,0.482,-28.505569,0.518
Glen Innes,11649,6155,151.446425,46,0.524,-32.596003,0.476
Eraring,11429,216,151.522946,52,0.479,-33.071249,0.521
East Branxton,11346,1808,151.363965,31,0.506,-32.655999,0.494
Bogan Gate,10438,289,147.802354,46,0.428,-33.106229,0.572
Myola (NSW),12878,107,150.673253,65,0.514,-35.027104,0.486
Cecil Park,10866,771,150.838225,39,0.482,-33.87478,0.518
Denistone West,11240,933,151.066085,39,0.501,-33.802382,0.499
Canton Beach,10798,1171,151.544045,60,0.52,-33.271922,0.48
Ulladulla,14003,6615,150.474301,51,0.517,-35.357094,0.483
Cremorne (NSW),11112,11227,151.230233,38,0.545,-33.828131,0.455
Bardia,10194,1602,150.8623,29,0.496,-33.9773,0.504
Redbournberry,13337,232,151.18943,41,0.502,-32.560421,0.498
Springdale Heights,13622,2036,146.94484,39,0.525,-36.033316,0.475
Hamilton South,11841,3876,151.747248,44,0.495,-32.934003,0.505
Gregadoo,11773,239,147.422814,40,0.506,-35.229449,0.494
Darkwood,11210,177,152.658005,44,0.503,-30.437487,0.497
Limeburners Creek (Mid-Coast - NSW),12328,336,143.9481,43,0.488,-38.2336,0.512
Bombo,10458,112,148.279996,49,0.486,-35.278606,0.514
Carcoar,10808,301,149.140601,56,0.513,-33.609622,0.487
Arncliffe,10086,10590,151.146805,33,0.499,-33.936592,0.501
Booragul,10495,1281,151.60589,45,0.542,-32.976125,0.458
Ballimore,10161,197,148.902065,44,0.483,-32.195726,0.517
Darawank,11203,395,152.483196,46,0.474,-32.121019,0.526
Galong,11580,224,150.246224,45,0.422,-33.704121,0.578
Clandulla,10916,197,149.950771,45,0.46,-32.906521,0.54
North Dorrigo,12989,189,152.671483,52,0.489,-30.281126,0.511
Concord,10999,14533,151.095046,41,0.516,-33.837702,0.484
Copmanhurst,11060,304,152.73514,53,0.503,-29.556803,0.497
Moulamein,12743,484,144.036636,50,0.476,-35.089135,0.524
Rowena,13431,181,148.935905,41,0.447,-29.796578,0.553
Birmingham Gardens,10377,2376,151.690829,26,0.469,-32.890844,0.531
Toongabbie (NSW),13907,14337,150.950644,35,0.499,-33.788942,0.501
Moama,12654,6162,144.755549,46,0.515,-36.112624,0.485
Swan Bay (Richmond Valley - NSW),13705,223,153.2946,42,0.489,-29.0755,0.511
Akolele,10023,173,150.07685,33,0.503,-36.355798,0.497
Mosman,12738,28475,151.24409,42,0.537,-33.829077,0.463
Pelaw Main,13177,1021,151.480398,41,0.478,-32.833664,0.522
Eglinton (NSW),11386,2256,149.558662,35,0.509,-33.374597,0.491
Minmi,12638,743,151.617789,33,0.492,-32.877152,0.508
Mangerton,12468,2859,150.871873,39,0.487,-34.431722,0.513
Kingscliff,12154,7464,153.575638,46,0.522,-28.254719,0.478
Nowendoc,13026,146,151.719541,51,0.514,-31.515203,0.486
North Turramurra,13013,4257,151.147146,57,0.56,-33.713419,0.44
Balldale,10159,156,146.518358,48,0.471,-35.845724,0.529
Ebenezer (NSW),11371,993,150.881372,38,0.487,-33.52466,0.513
Punchbowl (Canterbury-Bankstown - NSW),13273,20236,151.0516,32,0.488,-33.9291,0.512
Canowindra,10796,2258,148.66491,46,0.515,-33.562223,0.485
Brushgrove,10622,199,153.080634,56,0.411,-29.566127,0.589
Glen Martin,11650,172,151.825623,47,0.53,-32.53878,0.47
Yerrinbool,14510,1164,150.538132,39,0.513,-34.375908,0.487
Glenmore Park,11670,23004,150.6693,32,0.515,-33.790683,0.485
Thora,13849,332,152.772526,47,0.506,-30.414372,0.494
Binna Burra (NSW),10371,218,153.490299,42,0.466,-28.709653,0.534
Ingleside,11979,974,151.262322,44,0.475,-33.683176,0.525
Nelson Bay (NSW),12923,5820,152.154863,48,0.504,-32.717075,0.496
Bendemeer,10289,492,151.159905,49,0.498,-30.878399,0.502
Carrathool,10827,238,145.430787,36,0.432,-34.407182,0.568
Brewarrina,10563,1143,146.858999,32,0.48,-29.961519,0.52
St Johns Park,13641,6119,150.905403,41,0.516,-33.885824,0.484
Blandford,10406,183,150.928753,53,0.489,-31.793098,0.511
Guyong,11821,127,149.248914,44,0.492,-33.414685,0.508
Mayfield West,12536,1895,151.7255,34,0.473,-32.890539,0.527
Lockhart,12369,1061,146.716343,49,0.506,-35.221085,0.494
Dawes Point,11222,357,151.20822,51,0.51,-33.855601,0.49
Hamilton (NSW),11838,4229,151.746874,38,0.52,-32.924042,0.48
Chisholm (NSW),10909,1461,145.7164,31,0.506,-38.176,0.494
Yelgun,14499,103,153.512834,47,0.509,-28.476032,0.491
Noraville,12974,2918,151.559914,42,0.516,-33.265942,0.484
Dairymans Plains,11188,152,149.034048,45,0.487,-36.204435,0.513
Willawarrin,14295,191,152.627874,47,0.521,-30.929995,0.479
New Brighton,12939,356,153.549644,46,0.507,-28.509358,0.493
Coramba,11065,810,153.016086,45,0.495,-30.222515,0.505
North Nowra,13000,5794,150.591467,41,0.513,-34.860731,0.487
Tolland,13887,3357,147.349979,35,0.519,-35.147915,0.481
Jaspers Brush,12002,359,150.657592,53,0.511,-34.803323,0.489
Duns Creek,11326,546,151.78275,41,0.467,-32.580313,0.533
Berowra Heights,10310,5264,151.136829,40,0.507,-33.610968,0.493
North Bourke,12985,287,146.1312,44,0.452,-29.7541,0.548
Beresfield,10301,3181,151.657881,40,0.492,-32.801094,0.508
Glen Oak,11652,348,151.70917,43,0.499,-32.613853,0.501
Hay South,11875,357,144.842938,46,0.492,-34.512685,0.508
Chatswood West,10893,1499,151.167142,43,0.507,-33.796332,0.493
Batemans Bay,10229,1530,150.183191,53,0.503,-35.700315,0.497
Big Springs,10345,117,147.43227,47,0.563,-35.326669,0.437
Rozelle,13435,8725,151.170573,38,0.522,-33.863063,0.478
Cawdor (NSW),10863,434,150.671985,46,0.497,-34.108691,0.503
Moorland (NSW),12714,495,152.652348,50,0.464,-31.772228,0.536
Stockton (NSW),13662,4160,151.78438,49,0.5,-32.91612,0.5
Camden South,10773,4539,150.695074,37,0.51,-34.08748,0.49
Warialda Rail,14150,112,150.536881,42,0.398,-29.583725,0.602
Largs,12278,1940,151.602415,36,0.511,-32.702528,0.489
Numeralla,13039,258,149.340668,46,0.486,-36.177223,0.514
Balgownie,10155,5525,150.877689,43,0.519,-34.38859,0.481
New Berrima,12938,584,150.332394,35,0.529,-34.504395,0.471
Hartley (NSW),11861,409,150.208607,46,0.471,-33.571701,0.529
Fountaindale,11554,700,151.392826,43,0.501,-33.338303,0.499
Telarah,13780,2329,151.536856,36,0.509,-32.729499,0.491
Woodbine (NSW),14378,2741,150.818872,36,0.484,-34.049892,0.516
Yippin Creek,14515,195,152.712615,47,0.526,-31.446918,0.474
St Helens Park,13637,6602,150.798121,31,0.513,-34.112264,0.487
Tallwoods Village,13737,705,152.507801,57,0.509,-32.056396,0.491
Merrygoen,12587,115,149.230644,49,0.43,-31.824229,0.57
Chilcotts Grass,10903,232,153.335738,46,0.496,-28.836153,0.504
Barkers Vale,10201,165,153.123465,45,0.476,-28.538014,0.524
Asquith,10103,3376,151.108685,39,0.52,-33.687484,0.48
Narellan Vale,12897,7193,150.74408,33,0.516,-34.055271,0.484
Collector,10972,313,149.424332,37,0.516,-34.91729,0.484
Iluka (NSW),11975,1718,153.350886,62,0.493,-29.407475,0.507
Terrigal,13805,11349,151.444461,42,0.511,-33.448011,0.489
Queenscliff (NSW),13296,3376,151.287817,35,0.508,-33.784595,0.492
Central Tilba,10877,288,150.084817,57,0.516,-36.311773,0.484
Newport (NSW),12956,9301,151.309312,43,0.509,-33.659896,0.491
Narrawallee,12909,1241,150.471766,54,0.517,-35.308851,0.483
Numinbah,13040,129,153.253377,49,0.512,-28.276838,0.488
Yarra,14468,173,150.14975,45,0.491,-31.669437,0.509
Quambone,13287,166,147.869963,44,0.506,-30.929382,0.494
Possum Brush,13251,148,152.454174,48,0.514,-32.042942,0.486
Bonny Hills,10470,2971,152.840605,48,0.509,-31.594981,0.491
Mount Pleasant (NSW),12784,1370,150.863798,42,0.503,-34.39666,0.497
Liberty Grove,12315,2254,151.083609,33,0.506,-33.841665,0.494
Broken Hill,10592,17814,141.458131,45,0.513,-31.977238,0.487
Rosewood (Snowy Valleys - NSW),13415,214,147.8596,43,0.462,-35.6502,0.538
Waverton,14202,3020,151.195808,38,0.528,-33.839969,0.472
Angourie,10059,222,153.359964,52,0.536,-29.481012,0.464
Hardys Bay,11852,227,151.35744,55,0.517,-33.525157,0.483
Blackwall (NSW),10399,1888,151.327632,44,0.522,-33.503434,0.478
Canley Vale,10792,10216,150.943275,36,0.508,-33.887291,0.492
Gundary,11806,270,149.787114,42,0.472,-34.815321,0.528
Stanwell Tops,13654,495,150.976159,38,0.487,-34.22077,0.513
Murrumbateman,12860,3219,149.03035,40,0.5,-34.969552,0.5
Helensburgh,11890,6383,150.981985,37,0.497,-34.190675,0.503
Jamberoo,11998,1636,150.776595,49,0.517,-34.648419,0.483
South Turramurra,13598,3084,151.113441,42,0.506,-33.746027,0.494
Eleebana,11393,5760,151.635401,44,0.51,-32.993626,0.49
Brandy Hill,10548,674,151.694171,48,0.514,-32.693797,0.486
Shellharbour,13533,3561,150.836628,44,0.502,-34.564922,0.498
Bradbury (NSW),10543,8800,150.814016,35,0.511,-34.086006,0.489
Forestville (NSW),11548,8329,151.21406,42,0.517,-33.762011,0.483
North Balgowlah,12981,3667,151.251721,38,0.512,-33.787074,0.488
Balcolyn,10145,967,151.553169,41,0.512,-33.095642,0.488
Kearns,12079,2745,150.803211,33,0.492,-34.021321,0.508
Curl Curl,11167,2414,151.295691,38,0.484,-33.761652,0.516
Manilla,12474,2550,150.632502,47,0.517,-30.565763,0.483
Lake Haven,12247,3578,151.501928,50,0.544,-33.240092,0.456
Woombah,14414,844,153.282736,57,0.495,-29.360487,0.505
Wooyung,14418,118,153.542861,54,0.496,-28.455809,0.504
Mannering Park,12477,2472,151.537603,41,0.508,-33.150538,0.492
Brocklesby,10584,183,146.680117,41,0.495,-35.822589,0.505
Modanville,12655,624,153.294687,45,0.491,-28.720422,0.509
Dundas Valley,11313,5412,151.061185,36,0.51,-33.78724,0.49
Tuggerah,13950,927,151.415901,34,0.51,-33.30701,0.49
Birchgrove,10374,3303,151.180609,43,0.531,-33.853386,0.469
Longueville,12385,2060,151.165342,45,0.499,-33.833096,0.501
Gum Scrub,11797,122,152.726685,52,0.492,-31.271046,0.508
Booerie Creek,10475,167,153.259952,47,0.506,-28.776035,0.494
Littleton,12360,799,150.13517,44,0.499,-33.498267,0.501
Pleasure Point,13229,528,150.98764,35,0.488,-33.966909,0.512
Georgica,11604,220,153.168113,52,0.437,-28.621858,0.563
Brunswick Heads,10621,1737,153.548253,50,0.53,-28.53899,0.47
Cherrybrook,10898,18765,151.041806,42,0.509,-33.722019,0.491
Coolangatta (NSW),11026,329,150.726361,45,0.455,-34.854208,0.545
Aylmerton,10119,194,150.492737,47,0.497,-34.419069,0.503
Windellama,14318,357,149.872388,50,0.448,-35.025089,0.552
Tuggerawong,13951,1280,151.476312,42,0.507,-33.280657,0.493
Coomealla,11041,826,142.0751,43,0.498,-34.0914,0.502
Bellmount Forest,10274,114,149.24271,46,0.521,-34.917864,0.479
Mossy Point,12741,569,150.175923,50,0.503,-35.837391,0.497
Beelbangera,10251,409,146.100092,37,0.498,-34.257097,0.502
Curramore (NSW),11174,193,150.782884,46,0.503,-34.621117,0.497
Ganmain,11585,779,147.038823,47,0.509,-34.794899,0.491
Marks Point,12492,1826,151.646098,47,0.523,-33.055212,0.477
Hinchinbrook (NSW),11915,11222,150.863863,33,0.505,-33.916611,0.495
Church Point,10915,997,151.284352,51,0.502,-33.644873,0.498
Smiths Creek (Tweed - NSW),13562,301,153.3798,48,0.517,-28.4297,0.483
Minore,12641,153,148.455401,47,0.457,-32.259512,0.543
Wandella (NSW),14128,141,149.848665,55,0.459,-36.299399,0.541
Meroo Meadow,12579,472,150.618378,44,0.505,-34.809874,0.495
Thirlmere,13847,4046,150.571102,40,0.507,-34.204088,0.493
Deniliquin,11237,7862,144.958974,45,0.516,-35.528544,0.484
North Wagga Wagga,13014,720,147.379424,41,0.472,-35.097097,0.528
Dunoon,11325,686,153.318543,44,0.507,-28.681929,0.493
Lennox Head,12303,6407,153.593901,43,0.521,-28.795715,0.479
Aldavilla,10028,1230,152.768142,37,0.318,-31.058949,0.682
Barraganyatti,10209,139,152.916973,55,0.468,-30.875913,0.532
Hernani,11896,126,152.420978,42,0.47,-30.342209,0.53
Clarence Town,10920,1994,151.779596,42,0.495,-32.583661,0.505
Mount Elliot (NSW),12757,171,151.385524,52,0.518,-33.399915,0.482
Woolooware,14410,3962,151.141431,39,0.511,-34.048276,0.489
Urunga,14061,3000,153.014883,54,0.507,-30.497075,0.493
Piggabeen,13202,322,153.465229,43,0.468,-28.192191,0.532
Queanbeyan East,13292,3936,149.244392,33,0.484,-35.342808,0.516
Meadowbank (NSW),12550,4408,151.090715,32,0.506,-33.815912,0.494
Crosslands,11127,566,152.706362,36,0.535,-31.438993,0.465
Primbee,13264,1640,150.881602,44,0.493,-34.500655,0.507
Catherine Hill Bay,10857,162,151.626395,49,0.49,-33.161795,0.51
Marom Creek,12499,127,153.372558,46,0.485,-28.902898,0.515
Bucca (NSW),10625,553,149.584181,43,0.472,-32.570896,0.528
Talarm,13728,219,152.819713,50,0.495,-30.701157,0.505
The Rocks (Sydney - NSW),13840,774,151.2081,41,0.446,-33.8588,0.554
Waterview Heights,14186,1325,152.838233,46,0.517,-29.702381,0.483
Walcha,14093,2553,151.402728,47,0.5,-30.944669,0.5
Kandos,12057,1315,149.96946,52,0.491,-32.857495,0.509
Homebush West,11930,8609,151.069369,30,0.475,-33.866788,0.525
Blackett,10392,3452,150.811206,31,0.519,-33.738507,0.481
Wahroonga,14085,17371,151.118119,41,0.518,-33.716405,0.482
Tacoma,13724,633,151.457044,39,0.502,-33.289592,0.498
Wisemans Creek,14343,113,149.718319,48,0.44,-33.618978,0.56
Queanbeyan,13291,6237,149.7838,37,0.507,-35.2308,0.493
Black Hill (NSW),10385,560,151.583655,44,0.509,-32.823598,0.491
Clunes (NSW),10939,868,153.405593,44,0.494,-28.729988,0.506
Red Range,13333,187,151.832385,50,0.511,-29.794136,0.489
Krambach,12202,378,152.250244,51,0.479,-32.048174,0.521
Chipping Norton,10908,9001,150.961662,38,0.511,-33.916829,0.489
Cudgera Creek,11144,331,153.519525,42,0.477,-28.389956,0.523
Hay (NSW),11874,2406,144.845099,46,0.503,-34.500508,0.497
Crystal Creek (NSW),11138,259,153.303819,44,0.519,-28.282291,0.481
Greendale (Liverpool - NSW),11759,348,150.6616,35,0.484,-33.9259,0.516
Calala,10748,3927,150.946878,34,0.503,-31.129764,0.497
Ambarvale,10049,7374,150.803644,32,0.512,-34.080467,0.488
Bilbul,10349,555,146.138176,38,0.477,-34.273406,0.523
Pillar Valley,13204,314,153.12999,49,0.44,-29.76405,0.56
Yarrawarrah,14485,2733,151.03279,40,0.512,-34.058462,0.488
Waverley (NSW),14200,4346,151.252059,40,0.552,-33.897955,0.448
Tarbuck Bay,13762,188,152.478147,46,0.489,-32.368488,0.511
Westdale (Tamworth Regional - NSW),14259,2755,150.854,29,0.508,-31.0891,0.492
Mayfield (Newcastle - NSW),12530,9314,115.7092,36,0.502,-33.2509,0.498
Cowan,11097,649,151.171015,40,0.493,-33.589491,0.507
Mallanganee,12457,148,152.720585,52,0.425,-28.906449,0.575
Bonville,10474,2554,153.034867,44,0.494,-30.376052,0.506
Kanoona,12066,143,149.779989,38,0.533,-36.745803,0.467
Kotara South,12201,1104,151.694264,38,0.517,-32.950811,0.483
Newcastle,12949,2753,151.703024,41,0.475,-32.890876,0.525
Oakhampton,13056,190,151.554468,63,0.508,-32.712551,0.492
Stratford (NSW),13672,145,151.937941,51,0.447,-32.119279,0.553
Nowra Hill,13029,2095,150.575151,35,0.301,-34.933614,0.699
Saratoga,13492,3938,151.354149,40,0.516,-33.475692,0.484
Doyalson,11286,313,151.546219,36,0.475,-33.185292,0.525
Brookfield (NSW),10596,205,151.762128,47,0.517,-32.505586,0.483
Wentworth Point,14227,6994,151.0777,32,0.518,-33.8284,0.482
Drake,11290,345,152.373562,55,0.49,-28.928936,0.51
Lake Wyangan,12255,897,146.032567,42,0.489,-34.247507,0.511
Malua Bay,12461,1929,150.232071,51,0.498,-35.783334,0.502
Newcastle East,12950,1004,151.788039,43,0.484,-32.927881,0.516
Oatlands (NSW),13063,5660,151.026314,40,0.516,-33.796298,0.484
New Lambton Heights,12943,2454,151.690553,40,0.498,-32.932574,0.502
Austinmer,10108,2560,150.934563,41,0.515,-34.306283,0.485
Goodooga,11702,247,147.452139,33,0.544,-29.113037,0.456
Hickeys Creek,11899,127,152.598291,55,0.477,-30.874838,0.523
Enngonia,11426,148,145.84617,30,0.471,-29.318123,0.529
Warragoon,14159,115,145.166984,43,0.466,-35.632619,0.534
Greenhills Beach,11764,792,151.1585,34,0.487,-34.0362,0.513
Regentville,13346,809,150.669102,37,0.484,-33.773649,0.516
Long Beach,12376,1436,150.234429,51,0.506,-35.698892,0.494
Wentworthville,14228,11318,150.970183,34,0.485,-33.805922,0.515
Culburra Beach,11146,2874,150.758745,53,0.499,-34.930305,0.501
Leura,12309,4644,150.330827,52,0.522,-33.714149,0.478
Corlette,11075,5356,152.106782,50,0.526,-32.721158,0.474
West Wallsend,14253,2240,151.582846,37,0.512,-32.902476,0.488
North Haven (NSW),12992,1670,152.81733,60,0.493,-31.640002,0.507
Oura,13102,219,148.558038,42,0.468,-35.139376,0.532
Mount Kuring-Gai,12772,1708,151.226792,40,0.5,-33.628729,0.5
Warwick Farm,14177,5884,150.932752,33,0.487,-33.913423,0.513
Coralville,11064,141,152.718136,50,0.427,-31.78274,0.573
Ariah Park,10081,493,147.221222,47,0.494,-34.348105,0.506
Killawarra (NSW),12132,170,152.297173,53,0.48,-31.902588,0.52
Mortons Creek,12731,279,152.649419,47,0.509,-31.390973,0.491
Upper Horton,14029,168,150.4471,40,0.514,-30.14094,0.486
Murrami,12850,235,146.30075,34,0.44,-34.426116,0.56
Jerrara,12017,157,150.818519,39,0.526,-34.669926,0.474
Niagara Park,12961,2743,151.355782,37,0.5,-33.381996,0.5
Yenda (NSW),14504,1537,146.195555,40,0.497,-34.24907,0.503
Salt Ash,13467,1128,151.907238,43,0.499,-32.78874,0.501
Middle Cove,12602,1340,151.207975,44,0.494,-33.794087,0.506
Albion Park Rail,10026,6918,150.79575,40,0.512,-34.560838,0.488
Bulli,10662,6105,150.168638,38,0.514,-34.344617,0.486
Cooks Gap,11018,540,149.717505,43,0.505,-32.378224,0.495
Boat Harbour (Port Stephens - NSW),10425,959,152.164,44,0.504,-29.4192,0.496
Surfside,13698,1371,150.198313,44,0.505,-35.700788,0.495
Maitland (NSW),12449,1885,151.589963,43,0.521,-32.75112,0.479
Argents Hill,10079,221,152.746326,52,0.435,-30.621952,0.565
Bossley Park,10515,14585,150.88415,39,0.505,-33.86626,0.495
Jewells,12024,2407,151.683174,45,0.51,-33.014125,0.49
Upper Horseshoe Creek,14028,124,153.088352,40,0.504,-28.524575,0.496
Aberglasslyn,10009,5401,151.534607,30,0.515,-32.694656,0.485
Alstonville,10046,5739,153.44036,50,0.544,-28.842125,0.456
Old Bar,13073,4389,152.585163,48,0.529,-31.969037,0.471
Cunningar,11164,145,148.419171,56,0.521,-34.562125,0.479
Bangalee (NSW),10173,657,150.570381,50,0.505,-34.843976,0.495
Brunkerville,10620,204,151.478758,47,0.5,-32.948838,0.5
Springdale (NSW),13621,150,147.717295,43,0.477,-34.465713,0.523
Blaxland (NSW),10407,7451,150.610076,40,0.516,-33.744263,0.484
Kimbriki,12139,130,152.267063,54,0.476,-31.922826,0.524
Rainbow Flat,13305,671,152.468205,52,0.486,-32.009783,0.514
Quialigo,13297,253,149.743155,45,0.466,-34.929309,0.534
Kapooka,12068,633,147.295748,22,0.33,-35.14779,0.67
Wollstonecraft,14359,8323,151.196621,36,0.537,-33.828158,0.463
Jerrys Plains,12021,385,150.904925,35,0.487,-32.491864,0.513
Rushforth,13446,245,152.900474,40,0.508,-29.743076,0.492
Megalong Valley,12557,149,150.2222,48,0.46,-33.7271,0.54
North St Marys,13007,3921,150.781319,35,0.502,-33.776502,0.498
Leadville,12290,169,149.544871,47,0.442,-32.017507,0.558
Dunbible,11309,354,153.401834,52,0.477,-28.382536,0.523
Woongarrah,14415,5226,151.477239,35,0.518,-33.246082,0.482
Toowoon Bay,13916,530,151.496592,57,0.502,-33.35802,0.498
Finley,11520,2519,145.575436,47,0.509,-35.645434,0.491
Kanahooka,12055,5575,150.808964,46,0.527,-34.49448,0.473
Swanhaven,13709,193,150.574812,59,0.505,-35.180764,0.495
Wrights Beach,14428,132,150.665252,51,0.462,-35.112035,0.538
Denhams Beach,11236,648,150.213231,61,0.503,-35.747722,0.497
Medway,12555,119,149.170568,45,0.508,-32.127033,0.492
Yattalunga (NSW),14496,551,151.360536,38,0.506,-33.470568,0.494
Springrange,13625,295,149.104756,40,0.498,-35.107791,0.502
Douglas Park,11283,1362,150.712878,42,0.486,-34.193696,0.514
Tapitallee,13755,612,150.540433,49,0.493,-34.829514,0.507
Burren Junction,10710,276,148.965674,43,0.45,-30.105176,0.55
Gocup,11690,153,148.184582,38,0.466,-35.2214,0.534
Calderwood,10750,173,150.707252,44,0.435,-34.552252,0.565
Sandy Point (NSW),13487,590,150.993967,40,0.485,-33.975419,0.515
Kremnos,12204,172,152.982773,55,0.443,-29.945018,0.557
Duramana,11330,206,149.532753,48,0.529,-33.267558,0.471
Wyong Creek,14447,434,151.363156,47,0.479,-33.270222,0.521
Waratah West,14142,2988,151.711762,32,0.493,-32.89879,0.507
Lethbridge Park,12307,4752,150.799824,33,0.514,-33.736938,0.486
Wattamondara,14190,213,148.606068,45,0.49,-33.938468,0.51
South Wentworthville,13599,6197,150.969376,34,0.499,-33.823892,0.501
Greigs Flat,11775,151,149.866268,42,0.457,-36.968353,0.543
Meerschaum Vale,12556,397,153.436069,46,0.466,-28.914194,0.534
Grenfell,11776,2573,148.161154,52,0.503,-33.894985,0.497
Kellyville,12088,27971,150.92865,35,0.508,-33.700104,0.492
Niangala,12962,121,151.365245,55,0.492,-31.342381,0.508
The Whiteman,13843,140,152.877264,46,0.445,-29.610382,0.555
Rileys Hill,13364,177,153.406656,44,0.497,-29.013855,0.503
Fletcher (NSW),11533,5136,151.637463,31,0.502,-32.876573,0.498
Boree Creek,10512,199,146.61426,44,0.505,-35.106183,0.495
Quorrobolong,13302,512,151.363966,47,0.519,-32.92247,0.481
Coffs Harbour,10959,25752,153.131469,43,0.525,-30.282731,0.475
Wisemans Ferry,14344,220,150.980048,48,0.523,-33.408879,0.477
Beaconsfield (NSW),10239,987,151.20189,34,0.478,-33.911613,0.522
South Maroota,13592,557,150.948575,40,0.488,-33.52308,0.512
Byangum,10729,133,153.38515,50,0.518,-28.361173,0.482
Twelve Mile Creek,13988,161,151.871462,48,0.435,-32.635386,0.565
Morpeth,12727,1403,151.626663,47,0.545,-32.724882,0.455
Busby,10720,4290,152.810381,32,0.508,-29.038162,0.492
Silverwater (Parramatta - NSW),13547,4166,151.0452,33,0.338,-33.8341,0.662
Gwandalan,11824,3273,151.587572,43,0.491,-33.139561,0.509
Mulwala,12830,2161,145.963942,52,0.507,-35.954159,0.493
Bunyah,10690,140,152.219204,53,0.518,-32.164248,0.482
Limpinwood,12333,215,153.222706,54,0.5,-28.311619,0.5
Bunyan,10691,152,149.153753,49,0.52,-36.16963,0.48
Coonamble,11044,2750,148.388448,42,0.506,-30.954311,0.494
South Kempsey,13588,2302,152.83255,40,0.514,-31.094228,0.486
Camden Head,10771,152,152.83456,55,0.494,-31.646864,0.506
Knockrow,12178,192,153.534972,48,0.462,-28.768821,0.538
Buronga,10696,1212,142.182794,38,0.492,-34.171443,0.508
Watsons Bay,14187,850,151.282368,39,0.505,-33.844806,0.495
Picton (NSW),13200,4816,150.606454,38,0.509,-34.185524,0.491
Bellambi,10264,3947,150.910756,40,0.516,-34.365911,0.484
Rye Park,13455,258,148.907695,49,0.492,-34.519573,0.508
Werri Beach,14233,562,150.832547,43,0.488,-34.734083,0.512
Sandy Beach,13479,2287,153.192117,38,0.502,-30.147985,0.498
Mayrung,12537,148,145.320415,40,0.449,-35.464979,0.551
Ravenswood (NSW),13321,497,147.847318,49,0.511,-31.699958,0.489
Lindendale,12336,245,153.388534,46,0.506,-28.83593,0.494
Tumblong,13963,196,148.00974,40,0.473,-35.136655,0.527
Canada Bay,10785,1238,151.116398,41,0.502,-33.863194,0.498
Tanja,13749,157,149.933291,56,0.494,-36.627881,0.506
Leppington,12305,3498,150.81727,35,0.49,-33.964333,0.51
Gilgai,11618,720,151.117347,43,0.503,-29.852316,0.497
Corrimal,11082,6519,150.91118,42,0.518,-34.376363,0.482
Nyngan,13049,2159,147.192356,40,0.505,-31.562487,0.495
Zetland,14524,10078,151.206234,28,0.501,-33.909938,0.499
Manly (NSW),12475,15866,151.269339,36,0.503,-33.775702,0.497
Sawyers Gully,13499,500,151.437112,44,0.452,-32.769359,0.548
Rosedale (NSW),13407,221,150.219889,55,0.467,-35.818606,0.533
Woodburn (Richmond Valley - NSW),14379,739,153.3559,42,0.47,-29.0963,0.53
North Star,13008,230,150.391368,36,0.459,-28.93259,0.541
Lake Munmorah,12253,5248,151.57042,48,0.515,-33.194148,0.485
Cumnock,11159,443,148.754509,50,0.45,-32.927818,0.55
Fishing Point,11526,1039,151.590191,53,0.495,-33.050652,0.505
Kincumber South,12142,684,151.381035,66,0.55,-33.487271,0.45
Marrickville,12504,26592,151.151568,36,0.51,-33.915178,0.49
Frog Rock,11570,153,149.686857,42,0.494,-32.476946,0.506
Lemon Tree Passage,12300,2603,152.039551,52,0.49,-32.730927,0.51
Cedar Party,10870,364,152.3901,55,0.484,-31.796941,0.516
Caringbah South,10816,12242,145.4212,42,0.507,-16.1846,0.493
Farley,11490,218,151.512185,43,0.47,-32.729063,0.53
North Macksville,12995,598,152.921564,54,0.523,-30.70403,0.477
Lavington,12287,12472,146.933346,40,0.518,-36.050577,0.482
Eumungerie,11456,304,148.626363,51,0.444,-31.951112,0.556
Goonengerry,11712,366,153.439674,49,0.49,-28.61079,0.51
Five Dock,11530,9356,151.130136,40,0.525,-33.866368,0.475
Wingham,14332,5374,152.374242,47,0.525,-31.869046,0.475
Jannali,12001,6184,151.065081,39,0.515,-34.017074,0.485
Rocky Point (NSW),13388,262,151.471707,43,0.47,-33.294922,0.53
Huntley (Orange - NSW),11958,150,149.1249,44,0.444,-33.3696,0.556
Black Springs (NSW),10389,225,149.711027,47,0.493,-33.840966,0.507
Tennyson (NSW),13789,384,150.736946,46,0.524,-33.536388,0.476
Miranda (NSW),12645,15284,151.100428,40,0.519,-34.034014,0.481
Goolmangar,11708,188,153.225916,39,0.489,-28.747167,0.511
Morven (Greater Hume Shire - NSW),12737,139,147.1565,43,0.478,-35.6466,0.522
Kirrawee,12172,9278,151.071196,40,0.524,-34.033743,0.476
Hamilton East,11839,983,151.754137,42,0.493,-32.929301,0.507
Bowning,10535,573,148.814699,45,0.492,-34.7679,0.508
Wongawilli,14374,141,150.758765,37,0.471,-34.480002,0.529
Tomerong,13894,1065,150.587068,44,0.49,-35.052034,0.51
Colebee,10965,1931,150.866046,32,0.486,-33.730647,0.514
Hallsville,11835,532,150.88197,47,0.513,-31.025229,0.487
Buchanan (NSW),10628,197,151.529302,41,0.515,-32.825353,0.485
Nevertire,12936,189,147.718723,46,0.481,-31.838854,0.519
Blakebrook,10402,151,153.243037,49,0.514,-28.765492,0.486
Cowra,11099,10063,148.691192,46,0.514,-33.83468,0.486
Casula,10852,15662,150.909367,34,0.513,-33.950422,0.487
Mullaley,12820,154,149.908463,43,0.475,-31.098523,0.525
Carool,10822,174,153.419146,47,0.436,-28.230291,0.564
Turrella,13982,2511,151.140643,29,0.489,-33.929963,0.511
Sydenham (NSW),13714,1145,151.166104,36,0.493,-33.915222,0.507
Soldiers Point,13570,1426,152.064758,53,0.509,-32.710492,0.491
Gelston Park,11597,121,147.33784,51,0.462,-35.233266,0.538
Shellharbour City Centre,13534,244,150.836628,77,0.658,-34.564922,0.342
Watagan,14180,120,151.2078,53,0.449,-33.0105,0.551
Moonan Flat,12697,128,151.235462,49,0.457,-31.926434,0.543
Arding,10075,208,151.556745,51,0.454,-30.588547,0.546
Glengarrie,11666,141,153.402315,59,0.406,-28.229223,0.594
Castlereagh,10850,1171,150.67655,40,0.489,-33.668796,0.511
Bundarra,10671,676,151.075836,47,0.506,-30.17137,0.494
Freshwater (NSW),11569,8866,153.349022,35,0.507,-29.35729,0.493
Caves Beach,10862,4054,151.640147,46,0.519,-33.108212,0.481
Edgecliff,11379,2580,151.235106,38,0.552,-33.878586,0.448
Barrack Point,10208,689,150.867375,45,0.495,-34.563249,0.505
Revesby,13355,14176,151.007296,38,0.516,-33.943582,0.484
Dalmeny,11191,1937,150.131434,57,0.531,-36.171034,0.469
Jamisontown,12000,5500,150.67951,36,0.519,-33.766193,0.481
Kains Flat,12049,165,149.836857,50,0.467,-32.465595,0.533
Windsor (NSW),14325,1891,150.817481,42,0.516,-33.608814,0.484
Kungala,12212,145,152.999301,48,0.469,-29.944587,0.531
Reidsdale,13348,125,149.845446,49,0.508,-35.589709,0.492
Cecil Hills,10865,7018,150.853171,35,0.503,-33.883696,0.497
Sandy Hollow,13486,169,150.566792,36,0.506,-32.33475,0.494
Tullibigeal,13957,233,146.728083,45,0.459,-33.420093,0.541
Emerton,11413,2252,150.808263,31,0.499,-33.742855,0.501
Kurri Kurri,12221,6044,151.482952,40,0.509,-32.817312,0.491
Sedgefield,13514,184,151.244895,39,0.459,-32.54412,0.541
Wombarra,14363,872,150.954245,44,0.51,-34.277848,0.49
Holgate,11921,972,151.405406,44,0.47,-33.409747,0.53
Vaucluse,14071,9337,151.278434,40,0.527,-33.859047,0.473
Mitchell (NSW),12650,1310,149.564408,24,0.306,-33.432706,0.694
Ruse,13443,5584,150.844069,37,0.512,-34.069283,0.488
Gundy,11809,204,150.996749,41,0.526,-32.014475,0.474
Point Piper,13233,1424,151.252329,48,0.508,-33.870083,0.492
Spencer,13607,306,151.142385,51,0.452,-33.459455,0.548
Yatte Yattah,14497,180,150.421,51,0.489,-35.267,0.511
Cambewarra,10763,238,150.559835,49,0.5,-34.82309,0.5
Dural (Hornsby - NSW),11328,7570,151.0415,43,0.514,-33.6851,0.486
Wallagoot,14103,518,149.917603,49,0.534,-36.788248,0.466
Peel,13174,290,149.615645,39,0.451,-33.290006,0.549
Walla Walla,14097,836,146.901019,42,0.508,-35.766734,0.492
Ashbury,10093,3329,151.11932,42,0.503,-33.901897,0.497
Stanbridge,13646,206,146.235644,37,0.485,-34.517721,0.515
Woodford (NSW),14383,1934,150.479149,46,0.503,-33.735174,0.497
Spring Grove,13614,431,153.155733,42,0.479,-28.833066,0.521
Alectown,10029,168,148.257653,49,0.494,-32.933075,0.506
The Junction,13827,1052,151.759625,38,0.517,-32.937528,0.483
Dulwich Hill,11303,13715,151.138774,37,0.523,-33.904689,0.477
Gooloogong,11709,399,148.41385,47,0.486,-33.650848,0.514
Upper Lansdowne,14033,565,152.47486,52,0.47,-31.702433,0.53
Tucki Tucki,13946,167,153.327739,45,0.452,-28.908813,0.548
Bocoble,10432,152,149.724411,47,0.451,-32.798969,0.549
Clarenza,10922,551,152.988368,49,0.475,-29.697238,0.525
North Narooma,12998,622,150.119086,60,0.514,-36.202678,0.486
Picnic Point,13199,6160,151.000056,39,0.512,-33.979303,0.488
Sefton,13516,5808,151.011469,34,0.498,-33.885501,0.502
Mount Colah,12750,7095,151.117161,39,0.502,-33.664817,0.498
Middle Dural,12603,1008,151.021276,45,0.481,-33.648471,0.519
Tullera,13956,279,153.301109,45,0.502,-28.744755,0.498
King Creek,12145,1568,152.75192,44,0.503,-31.482454,0.497
Flinders (NSW),11534,6679,150.844828,34,0.507,-34.579836,0.493
Emmaville,11414,519,151.598632,55,0.495,-29.443987,0.505
Hillville,11913,312,152.350683,49,0.486,-31.949663,0.514
Blue Knob,10416,221,153.198679,54,0.463,-28.560977,0.537
East Lindfield,11357,3711,151.186095,42,0.518,-33.766415,0.482
Middle Brook,12600,225,150.802501,40,0.48,-31.934061,0.52
Killcare,12133,473,151.370994,48,0.522,-33.52257,0.478
Pottsville,13257,6704,153.56855,40,0.521,-28.379066,0.479
Toronto,13918,5602,151.593162,48,0.52,-33.01329,0.48
Elizabeth Hills,11397,2535,150.8483,29,0.505,-33.9002,0.495
Shoalhaven Heads,13540,3059,150.745254,56,0.506,-34.85145,0.494
Mongarlowe,12678,117,149.922833,55,0.508,-35.422218,0.492
Maison Dieu,12448,181,151.094293,37,0.472,-32.535177,0.528
Frederickton,11561,1391,152.878933,44,0.542,-31.037762,0.458
Table Top,13722,1425,147.000325,41,0.5,-35.98027,0.5
Greenfield Park,11761,5092,150.889408,37,0.5,-33.872187,0.5
Wooloweyah,14411,406,153.342381,48,0.513,-29.483013,0.487
Kentucky South,12103,125,151.440954,46,0.484,-30.803987,0.516
Merah North,12572,186,149.215721,39,0.486,-30.145758,0.514
Mungindi (NSW),12843,601,149.100731,36,0.495,-28.999013,0.505
North Avoca,12980,2200,151.435833,40,0.5,-33.459007,0.5
Yagoona,14453,18013,151.037007,34,0.5,-33.918726,0.5
Bilpin,10358,665,150.522195,45,0.514,-33.498253,0.486
Whalan,14266,5973,150.809528,33,0.518,-33.760165,0.482
Grose Vale,11785,1265,150.672944,43,0.493,-33.584089,0.507
Nethercote,12932,341,149.828723,48,0.493,-37.01779,0.507
Bowen Mountain,10528,1571,150.627819,35,0.497,-33.573871,0.503
Phillip Bay,13193,704,151.236692,40,0.512,-33.980556,0.488
Marshall Mount,12507,142,150.745585,36,0.553,-34.545128,0.447
Castle Doyle,10846,164,151.75801,47,0.465,-30.586704,0.535
Rhodes,13358,11906,151.088105,29,0.509,-33.830764,0.491
Bungarribee,10682,2638,145.0383,31,0.489,-37.753,0.511
Tarrawanna,13769,2069,150.887815,47,0.543,-34.381864,0.457
Buff Point,10645,3511,151.535266,44,0.502,-33.238196,0.498
Lidcombe,12316,19627,151.047419,33,0.484,-33.854197,0.516
Heatherbrae,11884,512,151.732386,54,0.445,-32.787426,0.555
Kanimbla (NSW),12065,121,150.187891,54,0.504,-33.620702,0.496
Petersham,13190,8116,151.158575,35,0.505,-33.889283,0.495
Waratah (NSW),14141,4491,151.72722,39,0.527,-32.908152,0.473
Banora Point,10185,16167,153.535999,50,0.534,-28.213363,0.466
Hazelbrook,11881,4974,150.451629,40,0.531,-33.720992,0.469
Clemton Park,10928,1666,151.103282,43,0.524,-33.925357,0.476
Tregeagle,13933,456,153.353062,49,0.48,-28.846985,0.52
Lake Bathurst,12239,228,149.714504,46,0.435,-35.012657,0.565
Euston,11468,839,142.745126,35,0.496,-34.574977,0.504
Nunderi,13042,656,153.455223,47,0.508,-28.322491,0.492
St Georges Basin,13636,2913,150.597815,50,0.52,-35.090788,0.48
The Oaks,13831,2525,150.571086,38,0.511,-34.076873,0.489
Corindi Beach,11073,1686,153.20043,38,0.503,-30.028812,0.497
Arcadia (NSW),10072,1385,151.052726,44,0.495,-33.623101,0.505
Potato Point,13253,135,150.136611,61,0.467,-36.096051,0.533
Lower Portland,12412,589,150.865871,43,0.497,-33.451409,0.503
Theresa Park,13845,535,150.639915,43,0.487,-34.007922,0.513
Basin View,10223,1554,150.562281,45,0.523,-35.091103,0.477
Bobin,10427,155,152.283882,54,0.487,-31.726021,0.513
Metford,12592,4764,151.6092,33,0.525,-32.765913,0.475
Towradgi,13929,3127,150.90676,42,0.517,-34.384433,0.483
Rosewood (Port Macquarie-Hastings - NSW),13414,224,144.3337,47,0.529,-38.1376,0.471
Woodstock (Shoalhaven - NSW),14396,253,144.9881,48,0.49,-37.802,0.51
Skinners Shoot,13556,128,153.581417,48,0.451,-28.669029,0.549
Abermain,10010,2337,151.428668,37,0.503,-32.810815,0.497
Redhead,13340,3516,151.714385,46,0.515,-33.013487,0.485
Paddington (NSW),13115,12911,151.226475,36,0.526,-33.885032,0.474
Carlton (NSW),10819,10722,151.124528,36,0.498,-33.968523,0.502
Wallaga Lake,14102,548,150.066053,62,0.493,-36.356673,0.507
March,12486,115,149.076541,43,0.504,-33.216351,0.496
Stanhope Gardens,13649,9163,150.933621,35,0.51,-33.711215,0.49
Ashtonfield,10102,4645,151.601,36,0.508,-32.77382,0.492
Taylors Arm,13776,149,152.689457,50,0.49,-30.781179,0.51
Gumma,11801,458,152.963122,46,0.479,-30.72992,0.521
Glencoe (NSW),11657,192,151.726757,51,0.495,-29.925888,0.505
Mount Ousley,12782,1602,150.886719,42,0.483,-34.402376,0.517
Ashby Heights,10095,232,153.179387,52,0.502,-29.413743,0.498
Eschol Park,11441,2582,150.80968,34,0.506,-34.031357,0.494
Singleton (NSW),13549,5000,151.168367,40,0.504,-32.564025,0.496
Epping (NSW),11428,23688,151.087742,36,0.506,-33.759777,0.494
Bellimbopinni,10272,123,152.903409,40,0.5,-31.015929,0.5
Ladysmith,12233,352,147.513984,46,0.507,-35.207801,0.493
Matong,12523,164,148.29153,51,0.429,-35.375157,0.571
Auburn (NSW),10106,37366,151.033421,30,0.45,-33.849322,0.55
Fifield,11514,129,147.458805,47,0.484,-32.807977,0.516
Wootton,14417,195,152.279476,54,0.431,-32.325336,0.569
Kurmond,12215,852,150.701116,43,0.494,-33.549452,0.506
Narrandera,12906,4375,146.55696,44,0.511,-34.744609,0.489
Bowraville,10537,1122,152.854557,45,0.497,-30.6419,0.503
Crescent Head,11114,1531,152.9768,48,0.488,-31.189517,0.512
Bayview (NSW),10237,3620,151.298945,56,0.541,-33.66445,0.459
Byabarra,10727,328,152.528239,45,0.514,-31.53435,0.486
Potts Point,13256,9423,151.225603,32,0.389,-33.869026,0.611
Crabbes Creek,11102,290,153.496802,48,0.488,-28.45672,0.512
Raymond Terrace,13327,12820,151.776788,36,0.513,-32.760671,0.487
Reedy Creek (NSW),13342,174,149.993111,44,0.521,-32.729382,0.479
Holbrook,11920,1715,147.309788,49,0.518,-35.729414,0.482
Wallabadah,14098,421,150.758768,52,0.47,-31.523266,0.53
Karuah,12076,1411,151.792437,50,0.475,-32.195999,0.525
Boxers Creek,10541,226,149.839,43,0.476,-34.7712,0.524
Homeleigh,11931,109,153.070883,49,0.56,-28.553193,0.44
Padstow Heights,13121,3540,151.030955,43,0.517,-33.971073,0.483
Trunkey Creek,13942,120,149.363007,52,0.447,-33.824738,0.553
Far Meadow,11488,215,150.720449,55,0.523,-34.822063,0.477
Muswellbrook,12868,12075,150.888821,34,0.488,-32.263323,0.512
Merrylands West,12589,6592,150.972036,35,0.52,-33.832864,0.48
Berrara,10313,297,150.550411,54,0.515,-35.205582,0.485
Belmore,10279,12718,152.967558,37,0.502,-31.072166,0.498
Tabulam,13723,470,152.568553,49,0.488,-28.887198,0.512
Bellata,10266,350,149.790978,37,0.477,-29.919624,0.523
Balmoral (Lake Macquarie - NSW),10166,723,151.5803,42,0.489,-33.0463,0.511
Duranbah,11331,239,153.518474,42,0.479,-28.307575,0.521
Good Hope,11700,165,148.838622,42,0.506,-34.896682,0.494
Watanobbi,14181,3861,151.431783,34,0.52,-33.269072,0.48
Greystanes,11781,22802,150.951452,38,0.508,-33.829667,0.492
Pennant Hills,13183,7287,151.039113,40,0.509,-33.753676,0.491
Merrylands,12588,29653,150.972036,32,0.488,-33.832864,0.512
Warrawee,14165,2995,151.126134,41,0.507,-33.722839,0.493
Lithgow,12347,5201,147.334074,47,0.521,-35.169517,0.479
Ryde,13454,26499,151.088724,36,0.513,-33.807712,0.487
Foxground,11558,147,150.768404,58,0.537,-34.727084,0.463
Lane Cove,12266,10817,151.153281,37,0.525,-33.806246,0.475
Mulloon,12827,144,149.612194,46,0.551,-35.26821,0.449
Tuntable Creek,13971,191,153.266854,46,0.495,-28.629651,0.505
Cardiff South,10811,2830,151.661447,38,0.52,-32.957742,0.48
Milsons Point,12629,2158,151.211568,43,0.515,-33.847526,0.485
Estella,11444,2269,148.829275,31,0.544,-32.294635,0.456
Byron Bay,10733,5521,153.612224,42,0.514,-28.643387,0.486
Bonnyrigg,10471,8670,150.868448,36,0.518,-33.892667,0.482
Federal (NSW),11499,688,153.4526,47,0.508,-28.6592,0.492
Byrrill Creek,10734,124,153.226866,52,0.477,-28.442628,0.523
Annandale (NSW),10061,9451,151.170681,37,0.519,-33.881435,0.481
Orchard Hills,13095,1877,150.716312,43,0.467,-33.779331,0.533
Lyndhurst (Blayney - NSW),12426,365,148.9868,45,0.528,-33.6864,0.472
Whian Whian,14272,140,153.316231,46,0.457,-28.635197,0.543
The Ponds,13835,11731,150.753104,32,0.502,-34.054326,0.498
Nobbys Creek,12968,271,153.34435,47,0.493,-28.312013,0.507
Penrith,13184,13295,151.280352,37,0.513,-33.732127,0.487
Bexley North,10335,4097,151.114186,40,0.513,-33.938306,0.487
Eugowra,11454,779,148.37165,51,0.487,-33.427107,0.513
Taylors Beach (NSW),13777,117,152.05635,46,0.458,-32.737002,0.542
Elderslie (Camden - NSW),11391,6005,150.7151,33,0.518,-34.0577,0.482
Piambong,13197,154,149.455131,45,0.445,-32.520454,0.555
Kensington (NSW),12099,15004,151.219017,26,0.498,-33.912997,0.502
Strathfield South,13676,3546,151.082992,36,0.509,-33.891711,0.491
Barden Ridge,10193,4329,151.005396,37,0.507,-34.032851,0.493
Barellan,10197,538,146.571256,44,0.457,-34.28434,0.543
Cabramatta West,10741,7222,150.917514,35,0.513,-33.899136,0.487
Macmasters Beach,12432,1294,151.416479,48,0.51,-33.492821,0.49
Mollymook Beach,12670,2447,150.471836,56,0.516,-35.329662,0.484
Sawtell,13498,3682,153.099627,46,0.517,-30.369899,0.483
Dangarsleigh,11200,150,151.677892,47,0.474,-30.614162,0.526
Menangle,12568,1150,150.749149,50,0.515,-34.108654,0.485
Tooraweenah,13911,232,148.910428,50,0.487,-31.439404,0.513
East Ryde,11361,2454,151.140289,41,0.518,-33.813769,0.482
Magenta (NSW),12441,205,151.519517,54,0.495,-33.313335,0.505
Bundanoon (NSW),10670,2729,150.321575,56,0.53,-34.632598,0.47
Nelson (The Hills Shire - NSW),12922,454,150.9233,43,0.485,-33.6446,0.515
Sandgate (NSW),13474,305,151.708214,69,0.569,-32.867845,0.431
East Wagga Wagga,11364,237,147.382993,42,0.5,-35.120886,0.5
Eden Creek,11376,150,152.90534,55,0.467,-28.544552,0.533
Avoca (NSW),10113,199,150.479323,48,0.512,-34.613522,0.488
Coogee (NSW),11015,15212,151.256089,34,0.529,-33.931293,0.471
North Shore (NSW),13006,369,152.901853,44,0.476,-31.402369,0.524
Perthville,13189,624,149.54698,39,0.524,-33.4859,0.476
Blue Haven,10415,6378,151.492751,33,0.521,-33.207351,0.479
Horsley,11942,8221,150.766762,34,0.512,-34.489605,0.488
Tweed Heads West,13986,6196,153.505049,49,0.525,-28.195403,0.475
Mays Hill,12538,767,150.990511,32,0.479,-33.82066,0.521
Pomona (NSW),13240,161,141.894926,46,0.478,-34.020625,0.522
Clothiers Creek,10936,277,153.491516,42,0.45,-28.331143,0.55
Hexham (NSW),11898,130,151.685483,50,0.47,-32.830649,0.53
Kingswood (Tamworth Regional - NSW),12164,1034,152.9686,44,0.487,-27.066,0.513
Tocumwal,13886,2682,145.567389,55,0.505,-35.812107,0.495
Killcare Heights,12134,745,151.370994,47,0.505,-33.52257,0.495
Gerogery,11605,565,146.994255,42,0.486,-35.834294,0.514
Urila,14059,142,149.311818,43,0.507,-35.588233,0.493
Fern Bay,11501,2763,151.810346,53,0.505,-32.854436,0.495
Eastwood (NSW),11369,17865,151.080914,36,0.513,-33.789986,0.487
Bensville,10297,2545,151.381089,40,0.502,-33.498579,0.498
Lucknow (NSW),12418,297,149.161068,44,0.447,-33.345662,0.553
Nemingha,12926,666,150.990412,43,0.472,-31.123654,0.528
Wollongbar,14357,2828,153.421078,42,0.512,-28.827962,0.488
Balranald,10168,1343,144.0717,45,0.488,-34.0414,0.512
Beryl,10327,132,149.437976,44,0.48,-32.351413,0.52
Talofa,13739,110,153.55987,44,0.533,-28.674223,0.467
Abercrombie,10004,1109,149.332781,36,0.52,-33.911806,0.48
Laurieton,12283,1986,152.798179,65,0.536,-31.650229,0.464
Loftville,12372,229,153.26343,51,0.362,-28.839721,0.638
Copacabana,11056,2735,151.430558,41,0.49,-33.48994,0.51
Haywards Bay,11880,1006,150.787364,35,0.508,-34.540289,0.492
Upper Kangaroo River,14030,122,150.60052,59,0.492,-34.686553,0.508
Doubtful Creek,11282,140,152.915051,48,0.433,-28.748597,0.567
Grafton,11733,10408,152.934605,43,0.519,-29.703242,0.481
Tooleybuc,13902,277,143.338275,48,0.507,-35.027891,0.493
Oxley Vale,13111,3742,150.900142,33,0.536,-31.06203,0.464
Brookvale,10601,3161,151.273824,35,0.503,-33.766629,0.497
Plumpton (NSW),13230,9209,150.841204,32,0.514,-33.751432,0.486
Farmborough Heights,11491,4198,150.819944,38,0.516,-34.454004,0.484
Adelong,10018,943,148.063682,46,0.496,-35.307947,0.504
Auburn Vale,10107,123,151.041719,48,0.504,-29.83895,0.496
Baulkham Hills,10233,37050,150.992887,38,0.51,-33.758601,0.49
Paynes Crossing,13163,118,151.102746,48,0.464,-32.885782,0.536
Bedgerabong,10247,149,147.1951,42,0.433,-36.1761,0.567
Blackbutt (NSW),10391,3301,150.834695,40,0.525,-34.56896,0.475
Weethalle,14215,250,146.625969,50,0.484,-33.875402,0.516
Kentucky,12102,158,151.440954,49,0.522,-30.803987,0.478
Booker Bay,10477,1326,151.34478,55,0.511,-33.511566,0.489
Maclean,12431,2628,153.196869,56,0.53,-29.457963,0.47
Wareemba,14148,1546,151.130728,41,0.549,-33.856828,0.451
Anna Bay,10060,3846,152.083274,47,0.516,-32.776919,0.484
Milperra,12625,3952,150.989263,39,0.507,-33.937834,0.493
Acacia Gardens,10014,3798,150.906502,34,0.5,-33.730077,0.5
McDougalls Hill,12541,144,151.152271,45,0.406,-32.551514,0.594
Wards River,14147,178,151.935901,53,0.503,-32.223467,0.497
Chittaway Bay,10911,2028,151.429428,41,0.501,-33.32776,0.499
Fairy Meadow,11484,7405,150.891874,37,0.504,-34.399879,0.496
Londonderry (NSW),12375,3906,150.73698,38,0.484,-33.645188,0.516
Spring Flat,13613,205,149.606908,45,0.473,-32.638843,0.527
Barmedman,10202,459,147.406754,42,0.496,-34.184676,0.504
Yarramalong,14475,340,151.277495,43,0.497,-33.222529,0.503
Delungra,11234,647,150.830948,44,0.476,-29.652485,0.524
Bannister (NSW),10183,120,149.490386,49,0.483,-34.595404,0.517
Gilead,11617,417,150.761815,72,0.592,-34.107035,0.408
Sutton Forest,13703,477,150.321036,48,0.454,-34.568289,0.546
Kurnell,12216,2267,151.204879,37,0.494,-34.008487,0.506
Austral,10109,3024,152.937797,43,0.497,-31.021949,0.503
Portland (NSW),13250,2424,149.98227,47,0.489,-33.353124,0.511
Bethungra,10328,164,147.852565,53,0.479,-34.762894,0.521
Woodview,14397,143,152.950742,46,0.453,-28.86062,0.547
Running Stream,13441,134,149.911201,48,0.519,-33.02011,0.481
Leonay,12304,2518,150.652318,40,0.509,-33.759156,0.491
Timbumburi,13870,142,150.917132,43,0.51,-31.203391,0.49
Tarana,13760,171,149.908189,44,0.477,-33.526572,0.523
Lawrence (NSW),12288,1046,153.105535,54,0.5,-29.496729,0.5
Summerland Point,13690,2493,151.565431,45,0.508,-33.139085,0.492
Kings Park (NSW),12150,3453,150.904598,34,0.499,-33.745736,0.501
Berry Park,10325,127,151.650248,46,0.5,-32.755266,0.5
Green Point (Mid-Coast - NSW),11755,526,152.5178,50,0.499,-32.2485,0.501
Karangi,12072,586,153.048256,41,0.505,-30.254449,0.495
Wamberal,14122,6550,151.446193,39,0.506,-33.418298,0.494
Kellyville Ridge,12089,10468,150.92865,32,0.508,-33.700104,0.492
Heddon Greta,11888,2047,151.509565,34,0.504,-32.804507,0.496
Quakers Hill,13286,27080,150.881177,33,0.505,-33.728356,0.495
Balmain East,10165,1932,151.190598,43,0.509,-33.857833,0.491
Glen William,11654,122,151.79757,43,0.496,-32.521508,0.504
Mona Vale,12672,10670,151.300316,44,0.52,-33.67707,0.48
Yarrahapinni,14474,194,152.942535,57,0.513,-30.837327,0.487
Oakville,13060,1964,150.862154,41,0.487,-33.622562,0.513
Wattle Flat (NSW),14191,257,149.693813,53,0.504,-33.140507,0.496
Port Hacking,13244,1093,151.122449,42,0.52,-34.067503,0.48
Bass Hill,10224,9069,150.992888,34,0.507,-33.900608,0.493
Blacksmiths,10396,1846,151.652305,48,0.493,-33.077161,0.507
Breeza,10561,146,150.457901,44,0.466,-31.244175,0.534
Paxton,13162,942,151.279669,36,0.513,-32.902045,0.487
Leeton,12293,8623,146.406444,40,0.509,-34.5522,0.491
Horningsea Park,11935,3729,150.842975,32,0.516,-33.945088,0.484
Macksville,12430,2598,152.921564,48,0.526,-30.70403,0.474
Tottenham (NSW),13923,453,147.356028,50,0.495,-32.244042,0.505
Kingsvale,12161,172,148.363624,48,0.514,-34.457564,0.486
South Durras,13580,341,150.295026,52,0.497,-35.650988,0.503
Lake Conjola,12244,437,150.492742,61,0.466,-35.269291,0.534
Carrington (Newcastle - NSW),10830,1929,139.6178,35,0.492,-17.1007,0.508
Surf Beach (NSW),13697,1874,150.21013,53,0.529,-35.761341,0.471
Palm Grove (NSW),13133,106,151.311454,56,0.449,-33.326275,0.551
Elizabeth Bay,11395,5215,151.226593,41,0.496,-33.872829,0.504
Dalton,11194,195,149.181024,49,0.492,-34.72191,0.508
Wayo,14204,119,149.628076,52,0.456,-34.60171,0.544
New Italy,12941,187,153.287828,47,0.453,-29.150297,0.547
Bombay,10456,117,149.666636,44,0.475,-35.436417,0.525
Willow Vale (Wingecarribee - NSW),14307,717,150.4716,46,0.491,-34.4321,0.509
Grattai,11741,320,149.482995,46,0.462,-32.654782,0.538
Merriwagga,12586,107,145.622346,43,0.458,-33.820291,0.542
Lambs Valley (Singleton - NSW),12263,367,152.3054,42,0.515,-25.2694,0.485
Chain Valley Bay,10880,2459,151.580195,56,0.518,-33.174102,0.482
Marsfield,12506,13297,151.094241,35,0.523,-33.783971,0.477
Vineyard,14076,1166,150.8521,46,0.504,-33.6416,0.496
Worrowing Heights,14424,506,150.639373,77,0.562,-35.065515,0.438
Maraylya,12484,1244,150.90695,40,0.496,-33.58198,0.504
Beverley Park,10330,2393,151.131345,39,0.499,-33.975135,0.501
Hinton,11916,448,151.651388,44,0.485,-32.716588,0.515
Narellan,12896,3616,150.74408,37,0.517,-34.055271,0.483
Bridgman,10567,200,151.151748,36,0.478,-32.437932,0.522
Georges Hall,11601,9038,150.982469,37,0.515,-33.912851,0.485
St Fillans,13634,239,149.632641,47,0.479,-32.468156,0.521
Bexhill,10333,495,153.346496,42,0.513,-28.762689,0.487
Lower Boro,12402,176,149.7752,50,0.446,-35.1372,0.554
East Gresford,11350,306,151.553227,36,0.498,-32.428616,0.502
Tarraganda,13768,334,149.866664,50,0.516,-36.667587,0.484
Collie (NSW),10975,194,148.30349,39,0.462,-31.667727,0.538
Kangy Angy,12064,306,151.395063,47,0.476,-33.322397,0.524
Wyong,14446,4326,151.49038,45,0.507,-33.274859,0.493
Gurley,11817,236,149.79988,43,0.455,-29.735601,0.545
Mascot,12519,14772,151.19431,32,0.497,-33.931189,0.503
Grabben Gullen,11731,253,149.410916,48,0.475,-34.545474,0.525
Harrington Park,11859,10663,150.742232,33,0.51,-34.023239,0.49
Albion Park,10025,13316,150.79575,35,0.518,-34.560838,0.482
Mount Annan,12745,11703,150.764158,33,0.512,-34.054864,0.488
Lade Vale,12232,128,149.139454,48,0.481,-34.84439,0.519
Eastlakes,11368,6912,151.213199,36,0.5,-33.925133,0.5
Harden,11851,2030,148.369635,50,0.532,-34.555033,0.468
Louth Park,12395,654,151.55845,38,0.472,-32.752138,0.528
Upper Manilla,14037,124,150.632502,46,0.496,-30.565763,0.504
Killabakh,12128,274,152.399887,49,0.506,-31.735516,0.494
Mardi,12488,3684,151.404775,37,0.517,-33.28342,0.483
Kingsgrove,12158,12446,151.098941,40,0.512,-33.939481,0.488
Middleton Grange,12607,5177,150.843547,30,0.505,-33.914093,0.495
Currawang,11177,182,149.476481,42,0.497,-34.984542,0.503
Whitton,14280,496,146.185556,42,0.476,-34.517992,0.524
Gilmore (NSW),11626,177,148.163783,45,0.448,-35.328188,0.552
